[
  {
    "lat": "47.7996761",
    "lng": "13.0443691",
    "id": 1560355,
    "name": "STORE SALZBURG",
    "address": "SIGMUND HAFFNER GASSE 4A",
    "city": "SALZBURG",
    "postal": "5020"
  },
  {
    "lat": "48.1318875",
    "lng": "11.6911029",
    "id": 1560356,
    "name": "KIOSK RIEM ARCADEN",
    "address": "WILLY BRAND PLATZ 5",
    "city": "MÜNCHEN",
    "postal": "81829"
  },
  {
    "lat": "48.1488843",
    "lng": "11.4619153",
    "id": 1560357,
    "name": "KIOSK PASING ARCADEN",
    "address": "PASINGER BAHNHOFSPLATZ 5",
    "city": "MÜNCHEN",
    "postal": "81241"
  },
  {
    "lat": "53.6537529",
    "lng": "10.0910016",
    "id": 1560358,
    "name": "KIOSK ALSTERTAL EKZ",
    "address": "HEEGBARG 31",
    "city": "HAMBURG",
    "postal": "22391"
  },
  {
    "lat": "48.2423608",
    "lng": "16.4349903",
    "id": 1560359,
    "name": "KIOSK DONAUZENTRUM",
    "address": "WAGRAMERSTRASSE 81",
    "city": "WIEN",
    "postal": "1220"
  },
  {
    "lat": "48.106052",
    "lng": "16.3184094",
    "id": 1560360,
    "name": "KIOSK SCS",
    "address": "VÖSENDORFER SÜDRING",
    "city": "VÖSENDORF",
    "postal": "2334"
  },
  {
    "lat": "48.2104844",
    "lng": "16.3731275",
    "id": 1560361,
    "name": "BIPA",
    "address": "HOHER MARKT 1",
    "city": "WIEN",
    "postal": "1010"
  },
  {
    "lat": "48.2030232",
    "lng": "16.3723178",
    "id": 1560362,
    "name": "BIPA",
    "address": "WALFISCHGASSE 10",
    "city": "WIEN",
    "postal": "1010"
  },
  {
    "lat": "48.2103996",
    "lng": "16.3741187",
    "id": 1560363,
    "name": "BIPA",
    "address": "ROTENTURMSTRASSE 17",
    "city": "WIEN",
    "postal": "1010"
  },
  {
    "lat": "48.2089461",
    "lng": "16.3705587",
    "id": 1560364,
    "name": "BIPA",
    "address": "GOLDSCHMIEDGASSE 7A",
    "city": "WIEN",
    "postal": "1010"
  },
  {
    "lat": "48.2077384",
    "lng": "16.3719717",
    "id": 1560365,
    "name": "BIPA",
    "address": "KÄRNTNER STRASSE 1-3",
    "city": "WIEN",
    "postal": "1010"
  },
  {
    "lat": "48.2021133",
    "lng": "16.3721357",
    "id": 1560366,
    "name": "BIPA",
    "description": "RINGSTRASSENGALERIEN",
    "address": "KÄRNTNER RING 9-13",
    "city": "WIEN",
    "postal": "1010"
  },
  {
    "lat": "48.2099855",
    "lng": "16.3783209",
    "id": 1560367,
    "name": "BIPA",
    "address": "FLEISCHMARKT 26",
    "city": "WIEN",
    "postal": "1010"
  },
  {
    "lat": "48.2136301",
    "lng": "16.3668818",
    "id": 1560368,
    "name": "BIPA",
    "address": "WIPPLINGERSTRASSE 31",
    "city": "WIEN",
    "postal": "1010"
  },
  {
    "lat": "48.2164091",
    "lng": "16.3708694",
    "id": 1560369,
    "name": "BIPA",
    "description": "ECKE ESSLINGGASSE",
    "address": "FRANZ JOSEFS KAI 55",
    "city": "WIEN",
    "postal": "1010"
  },
  {
    "lat": "48.2206525",
    "lng": "16.373032",
    "id": 1560370,
    "name": "BIPA",
    "description": "ECKE FÖRSTERGASSE",
    "address": "UNTERE AUGARTENSTRASSE 11",
    "city": "WIEN",
    "postal": "1020"
  },
  {
    "lat": "48.2150682",
    "lng": "16.3794415",
    "id": 1560371,
    "name": "BIPA",
    "address": "TABORSTRASSE 17",
    "city": "WIEN",
    "postal": "1020"
  },
  {
    "lat": "48.21908",
    "lng": "16.392154",
    "id": 1560372,
    "name": "BIPA",
    "address": "PRATERSTERN BAHNHOF-NORD",
    "city": "WIEN",
    "postal": "1020"
  },
  {
    "lat": "48.2200578",
    "lng": "16.3873494",
    "id": 1560373,
    "name": "BIPA",
    "address": "HEINESTRASSE 31",
    "city": "WIEN",
    "postal": "1020"
  },
  {
    "lat": "48.2203329",
    "lng": "16.3812329",
    "id": 1560374,
    "name": "BIPA",
    "address": "TABORSTRASSE 45",
    "city": "WIEN",
    "postal": "1020"
  },
  {
    "lat": "48.2245042",
    "lng": "16.4018397",
    "id": 1560375,
    "name": "BIPA",
    "description": "ECKE LASSALLESTRASSE",
    "address": "VORGARTENSTRASSE 185",
    "city": "WIEN",
    "postal": "1020"
  },
  {
    "lat": "48.2189801",
    "lng": "16.4022288",
    "id": 1560376,
    "name": "BIPA",
    "address": "STUWERSTRASSE 27",
    "city": "WIEN",
    "postal": "1020"
  },
  {
    "lat": "48.2151285",
    "lng": "16.3846291",
    "id": 1560377,
    "name": "BIPA",
    "description": "BAHNHOF NORD",
    "address": "PRATERSTRASSE 33",
    "city": "WIEN",
    "postal": "1020"
  },
  {
    "lat": "48.2166948",
    "lng": "16.3777293",
    "id": 1560378,
    "name": "BIPA",
    "address": "HOLLANDSTRASSE 20",
    "city": "WIEN",
    "postal": "1020"
  },
  {
    "lat": "48.2036193",
    "lng": "16.3889934",
    "id": 1560379,
    "name": "BIPA",
    "address": "LANDSTRASSER HAUPTSTR. 32",
    "city": "WIEN",
    "postal": "1030"
  },
  {
    "lat": "48.2111107",
    "lng": "16.3895993",
    "id": 1560380,
    "name": "BIPA",
    "address": "RADETZKY STRASSE 17",
    "city": "WIEN",
    "postal": "1030"
  },
  {
    "lat": "48.1915317",
    "lng": "16.3860044",
    "id": 1560381,
    "name": "BIPA",
    "description": "ECKE HEGERGASSE",
    "address": "FASANGASSE 31",
    "city": "WIEN",
    "postal": "1030"
  },
  {
    "lat": "48.1969968",
    "lng": "16.402777",
    "id": 1560382,
    "name": "BIPA",
    "address": "ERDBERGSTRASSE 112",
    "city": "WIEN",
    "postal": "1030"
  },
  {
    "lat": "48.1942347",
    "lng": "16.3872945",
    "id": 1560383,
    "name": "BIPA",
    "description": "ECKE FASANGASSE",
    "address": "RENNWEG 28",
    "city": "WIEN",
    "postal": "1030"
  },
  {
    "lat": "48.1919646",
    "lng": "16.3988674",
    "id": 1560384,
    "name": "BIPA",
    "description": "WOHNPARK",
    "address": "LANDSTRASSER HAUPTSTR 146",
    "city": "WIEN",
    "postal": "1030"
  },
  {
    "lat": "48.2071687",
    "lng": "16.3940504",
    "id": 1560385,
    "name": "BIPA",
    "description": "ECKE PARACELSUSGASSE",
    "address": "LÖWENGASSE 45",
    "city": "WIEN",
    "postal": "1030"
  },
  {
    "lat": "48.1993262",
    "lng": "16.3876627",
    "id": 1560386,
    "name": "BIPA",
    "address": "NEULINGGASSE 28",
    "city": "WIEN",
    "postal": "1030"
  },
  {
    "lat": "48.2004139",
    "lng": "16.3969329",
    "id": 1560387,
    "name": "BIPA",
    "address": "ERDBERGSTRASSE 52-60",
    "city": "WIEN",
    "postal": "1030"
  },
  {
    "lat": "48.1942809",
    "lng": "16.4075714",
    "id": 1560388,
    "name": "BIPA",
    "description": "ARKADENHOF",
    "address": "MARKHOFGASSE 1-9",
    "city": "WIEN",
    "postal": "1030"
  },
  {
    "lat": "48.2016008",
    "lng": "16.3912043",
    "id": 1560389,
    "name": "BIPA",
    "description": "ECKE ROCHUSGASSE",
    "address": "LANDSTRASSER HAUPTSTR. 62",
    "city": "WIEN",
    "postal": "1030"
  },
  {
    "lat": "48.2067179",
    "lng": "16.3836215",
    "id": 1560390,
    "name": "BIPA",
    "description": "ECKE GIGERGASSE",
    "address": "LANDSTRASSER HAUPTSTR. 1",
    "city": "WIEN",
    "postal": "1030"
  },
  {
    "lat": "48.19536",
    "lng": "16.3630618",
    "id": 1560391,
    "name": "BIPA",
    "address": "PRESSGASSE 17",
    "city": "WIEN",
    "postal": "1040"
  },
  {
    "lat": "48.1893758",
    "lng": "16.3652633",
    "id": 1560392,
    "name": "BIPA",
    "description": "GALERIE WIEDEN",
    "address": "WIEDNER HAUPTSTRASSE 76",
    "city": "WIEN",
    "postal": "1040"
  },
  {
    "lat": "48.1878901",
    "lng": "16.3727102",
    "id": 1560393,
    "name": "BIPA",
    "address": "FAVORITENSTRASSE 66",
    "city": "WIEN",
    "postal": "1040"
  },
  {
    "lat": "48.1909974",
    "lng": "16.3760103",
    "id": 1560394,
    "name": "BIPA",
    "address": "BELVEDEREGASSE 23",
    "city": "WIEN",
    "postal": "1040"
  },
  {
    "lat": "48.1964011",
    "lng": "16.3679528",
    "id": 1560395,
    "name": "BIPA",
    "address": "FAVORITENSTRASSE 1",
    "city": "WIEN",
    "postal": "1040"
  },
  {
    "lat": "48.192278",
    "lng": "16.3606783",
    "id": 1560396,
    "name": "BIPA",
    "address": "MARGARETENSTRASSE 65",
    "city": "WIEN",
    "postal": "1050"
  },
  {
    "lat": "48.1860361",
    "lng": "16.3531672",
    "id": 1560397,
    "name": "BIPA",
    "address": "REINPRECHTSDORFER STR. 33",
    "city": "WIEN",
    "postal": "1050"
  },
  {
    "lat": "48.1965023",
    "lng": "16.35918",
    "id": 1560398,
    "name": "BIPA",
    "description": "ECKE KETTENBRÜCKENGASSE 23",
    "address": "RECHTE WIENZEILE 41",
    "city": "WIEN",
    "postal": "1050"
  },
  {
    "lat": "48.1921791",
    "lng": "16.355614",
    "id": 1560399,
    "name": "BIPA",
    "address": "PILGRAMGASSE 11-13",
    "city": "WIEN",
    "postal": "1050"
  },
  {
    "lat": "48.1924705",
    "lng": "16.3484186",
    "id": 1560400,
    "name": "BIPA",
    "description": "ECKE WEBGASSE",
    "address": "GUMPENDORFER STRASSE 88",
    "city": "WIEN",
    "postal": "1060"
  },
  {
    "lat": "48.201052",
    "lng": "16.3600801",
    "id": 1560401,
    "name": "BIPA",
    "address": "MARIAHILFER STRASSE 7",
    "city": "WIEN",
    "postal": "1060"
  },
  {
    "lat": "48.1991337",
    "lng": "16.3635759",
    "id": 1560402,
    "name": "BIPA",
    "address": "LINKE WIENZEILE 12",
    "city": "WIEN",
    "postal": "1060"
  },
  {
    "lat": "48.2061106",
    "lng": "16.3500594",
    "id": 1560403,
    "name": "BIPA",
    "address": "LERCHENFELDERSTRASSE 39",
    "city": "WIEN",
    "postal": "1070"
  },
  {
    "lat": "48.1967433",
    "lng": "16.34318",
    "id": 1560404,
    "name": "BIPA",
    "address": "MARIAHILFER STRASSE 112",
    "city": "WIEN",
    "postal": "1070"
  },
  {
    "lat": "48.2045336",
    "lng": "16.3450311",
    "id": 1560405,
    "name": "BIPA",
    "description": "ECKE BURGGASSE",
    "address": "ZIEGLERGASSE 72",
    "city": "WIEN",
    "postal": "1070"
  },
  {
    "lat": "48.2013344",
    "lng": "16.3517678",
    "id": 1560406,
    "name": "BIPA",
    "address": "KIRCHENGASSE 15",
    "city": "WIEN",
    "postal": "1070"
  },
  {
    "lat": "48.2041668",
    "lng": "16.3482595",
    "id": 1560407,
    "name": "BIPA",
    "description": "ECKE NEUBAUGASSE",
    "address": "BURGGASSE 67",
    "city": "WIEN",
    "postal": "1070"
  },
  {
    "lat": "48.2019604",
    "lng": "16.3401347",
    "id": 1560408,
    "name": "BIPA",
    "address": "WESTBAHNSTRASSE 52",
    "city": "WIEN",
    "postal": "1070"
  },
  {
    "lat": "48.2090509",
    "lng": "16.3512329",
    "id": 1560409,
    "name": "BIPA",
    "address": "JOSEFSTÄDTER STRASSE 21",
    "city": "WIEN",
    "postal": "1080"
  },
  {
    "lat": "48.2109085",
    "lng": "16.3424554",
    "id": 1560410,
    "name": "BIPA",
    "description": "ECKE BENNOGASSE",
    "address": "JOSEFSTÄDTER STRASSE 74B",
    "city": "WIEN",
    "postal": "1080"
  },
  {
    "lat": "48.2148558",
    "lng": "16.3502714",
    "id": 1560411,
    "name": "BIPA",
    "address": "ALSER STRASSE 25",
    "city": "WIEN",
    "postal": "1080"
  },
  {
    "lat": "48.2268855",
    "lng": "16.360945",
    "id": 1560412,
    "name": "BIPA",
    "description": "FRANZ-JOSEFS-BAHNHOF",
    "address": "JULIUS TANDLER PLATZ 3",
    "city": "WIEN",
    "postal": "1090"
  },
  {
    "lat": "48.2167778",
    "lng": "16.3600738",
    "id": 1560413,
    "name": "BIPA",
    "description": "ECKE TÜRKENSTRASSE",
    "address": "WÄHRINGER STRASSE 12",
    "city": "WIEN",
    "postal": "1090"
  },
  {
    "lat": "48.219684",
    "lng": "16.362579",
    "id": 1560414,
    "name": "BIPA",
    "address": "PORZELLANGASSE 10",
    "city": "WIEN",
    "postal": "1090"
  },
  {
    "lat": "48.2289629",
    "lng": "16.3544283",
    "id": 1560415,
    "name": "BIPA",
    "description": "ECKE PULVERTURMGASSE",
    "address": "NUSSDORFER STRASSE 57",
    "city": "WIEN",
    "postal": "1090"
  },
  {
    "lat": "48.2223265",
    "lng": "16.3608754",
    "id": 1560416,
    "name": "BIPA",
    "description": "ECKE FÜRSTENGASSE",
    "address": "PORZELLANGASSE 35",
    "city": "WIEN",
    "postal": "1090"
  },
  {
    "lat": "48.2154684",
    "lng": "16.3478476",
    "id": 1560417,
    "name": "BIPA",
    "address": "ALSER STRASSE 24",
    "city": "WIEN",
    "postal": "1090"
  },
  {
    "lat": "48.2253102",
    "lng": "16.3546442",
    "id": 1560418,
    "name": "BIPA",
    "address": "NUSSDORFER STRASSE 25",
    "city": "WIEN",
    "postal": "1090"
  },
  {
    "lat": "48.1727918",
    "lng": "16.37849",
    "id": 1560419,
    "name": "BIPA",
    "address": "FAVORITENSTRASSE 134",
    "city": "WIEN",
    "postal": "1100"
  },
  {
    "lat": "48.1765047",
    "lng": "16.3638435",
    "id": 1560420,
    "name": "BIPA",
    "description": "ECKE FERNKORNGASSE",
    "address": "QUELLENSTRASSE 132",
    "city": "WIEN",
    "postal": "1100"
  },
  {
    "lat": "48.1851249",
    "lng": "16.3760817",
    "id": 1560421,
    "name": "BIPA",
    "description": "TOP UG 1.113",
    "address": "AM HAUPTBAHNHOF 1",
    "city": "WIEN",
    "postal": "1100"
  },
  {
    "lat": "48.1774826",
    "lng": "16.3773556",
    "id": 1560422,
    "name": "BIPA",
    "address": "FAVORITENSTRASSE 97",
    "city": "WIEN",
    "postal": "1100"
  },
  {
    "lat": "48.1810867",
    "lng": "16.3757467",
    "id": 1560423,
    "name": "BIPA",
    "description": "ECKE LANDGUTGASSE",
    "address": "FAVORITENSTRASSE 77",
    "city": "WIEN",
    "postal": "1100"
  },
  {
    "lat": "48.172716",
    "lng": "16.3657653",
    "id": 1560424,
    "name": "BIPA",
    "description": "EKZ HERZPASSAGE",
    "address": "INZERSDORFER STR. 50-56",
    "city": "WIEN",
    "postal": "1100"
  },
  {
    "lat": "48.1685719",
    "lng": "16.3469547",
    "id": 1560425,
    "name": "BIPA",
    "description": "WIENERBERG CITY, EKZ TWIN TOWER",
    "address": "WIENERBERGSTRASSE 11",
    "city": "WIEN",
    "postal": "1100"
  },
  {
    "lat": "48.1534103",
    "lng": "16.3823749",
    "id": 1560426,
    "name": "BIPA",
    "description": "HANSSON ZENTRUM",
    "address": "FAVORITENSTRASSE 239",
    "city": "WIEN",
    "postal": "1100"
  },
  {
    "lat": "48.1739444",
    "lng": "16.3901112",
    "id": 1560427,
    "name": "BIPA",
    "description": "ECKE ABSBERGGASSE",
    "address": "QUELLENSTRASSE 22",
    "city": "WIEN",
    "postal": "1100"
  },
  {
    "lat": "48.1786428",
    "lng": "16.3665408",
    "id": 1560428,
    "name": "BIPA",
    "description": "ECKE ECKERTGASSE",
    "address": "GUDRUNSTRASSE 175",
    "city": "WIEN",
    "postal": "1100"
  },
  {
    "lat": "48.1399546",
    "lng": "16.3933257",
    "id": 1560429,
    "name": "BIPA",
    "address": "GRUNDÄCKERGASSE 38",
    "city": "WIEN",
    "postal": "1100"
  },
  {
    "lat": "48.1752481",
    "lng": "16.3768215",
    "id": 1560430,
    "name": "BIPA",
    "address": "QUELLENSTRASSE 119",
    "city": "WIEN",
    "postal": "1100"
  },
  {
    "lat": "48.1661081",
    "lng": "16.3624229",
    "id": 1560431,
    "name": "BIPA",
    "address": "RAXSTRASSE 18",
    "city": "WIEN",
    "postal": "1100"
  },
  {
    "lat": "48.1741814",
    "lng": "16.3595472",
    "id": 1560432,
    "name": "BIPA",
    "description": "HELLER WOHNPARK, ECKE GUSSRIEGELSTRASSE",
    "address": "DAVIDGASSE 81\/8\/1A",
    "city": "WIEN",
    "postal": "1100"
  },
  {
    "lat": "48.1737928",
    "lng": "16.4164924",
    "id": 1560433,
    "name": "BIPA",
    "description": "EKZ SIMMERING, EG",
    "address": "SIMMERINGER HAUPTSTR. 96A",
    "city": "WIEN",
    "postal": "1110"
  },
  {
    "lat": "48.1689364",
    "lng": "16.4723621",
    "id": 1560434,
    "name": "BIPA",
    "description": "HUMA ELEVEN, OG",
    "address": "LANDWEHRSTRASSE 6, TOP118",
    "city": "WIEN",
    "postal": "1110"
  },
  {
    "lat": "48.1551035",
    "lng": "16.4653683",
    "id": 1560435,
    "name": "BIPA",
    "description": "LEBERBERG",
    "address": "ETRICHSTRASSE 34",
    "city": "WIEN",
    "postal": "1110"
  },
  {
    "lat": "48.1800459",
    "lng": "16.4103248",
    "id": 1560436,
    "name": "BIPA",
    "address": "SIMMERINGER HAUPTSTR. 47",
    "city": "WIEN",
    "postal": "1110"
  },
  {
    "lat": "48.158133",
    "lng": "16.4531524",
    "id": 1560437,
    "name": "BIPA",
    "address": "THÜRNLHOFSTRASSE 25",
    "city": "WIEN",
    "postal": "1110"
  },
  {
    "lat": "48.1687651",
    "lng": "16.421559",
    "id": 1560438,
    "name": "BIPA",
    "address": "SIMMERINGER HAUPTSTR. 126",
    "city": "WIEN",
    "postal": "1110"
  },
  {
    "lat": "48.1791144",
    "lng": "16.3301368",
    "id": 1560439,
    "name": "BIPA",
    "description": "ECKE BONYGASSE",
    "address": "MEIDLINGER HAUPTSTR. 33",
    "city": "WIEN",
    "postal": "1120"
  },
  {
    "lat": "48.1834733",
    "lng": "16.3373744",
    "id": 1560440,
    "name": "BIPA",
    "description": "ECKE LÄNGENFELDGASSE",
    "address": "ARNDTSTRASSE 39",
    "city": "WIEN",
    "postal": "1120"
  },
  {
    "lat": "48.1617321",
    "lng": "16.3198107",
    "id": 1560441,
    "name": "BIPA",
    "address": "SAGEDERGASSE 18-22",
    "city": "WIEN",
    "postal": "1120"
  },
  {
    "lat": "48.167645",
    "lng": "16.3050463",
    "id": 1560442,
    "name": "BIPA",
    "description": "ECKE HERVICUSGASSE",
    "address": "HETZENDORFER STR. 105-107",
    "city": "WIEN",
    "postal": "1120"
  },
  {
    "lat": "48.1755742",
    "lng": "16.3300127",
    "id": 1560443,
    "name": "BIPA",
    "address": "MEIDLINGER HAUPTSTR 78-80",
    "city": "WIEN",
    "postal": "1120"
  },
  {
    "lat": "48.1641056",
    "lng": "16.323481",
    "id": 1560444,
    "name": "BIPA",
    "address": "OSWALDGASSE 67",
    "city": "WIEN",
    "postal": "1120"
  },
  {
    "lat": "48.1809038",
    "lng": "16.3357182",
    "id": 1560445,
    "name": "BIPA",
    "description": "ECKE ALBRECHTSBERGERGASSE",
    "address": "NIEDERHOFSTRASSE 7",
    "city": "WIEN",
    "postal": "1120"
  },
  {
    "lat": "48.1833263",
    "lng": "16.3284174",
    "id": 1560446,
    "name": "BIPA",
    "description": "U4 CENTER",
    "address": "SCHÖNBRUNNER STRASSE 222",
    "city": "WIEN",
    "postal": "1120"
  },
  {
    "lat": "48.1763549",
    "lng": "16.283661",
    "id": 1560447,
    "name": "BIPA",
    "address": "LAINZER STRASSE 152",
    "city": "WIEN",
    "postal": "1130"
  },
  {
    "lat": "48.1866278",
    "lng": "16.3003459",
    "id": 1560448,
    "name": "BIPA",
    "description": "EKZ HIETZING",
    "address": "HIETZINGER HAUPTSTR. 22",
    "city": "WIEN",
    "postal": "1130"
  },
  {
    "lat": "48.1898172",
    "lng": "16.2772822",
    "id": 1560449,
    "name": "BIPA",
    "description": "ECKE PREINDLGASSE",
    "address": "AUHOFSTRASSE 99",
    "city": "WIEN",
    "postal": "1130"
  },
  {
    "lat": "48.1950827",
    "lng": "16.2914429",
    "id": 1560450,
    "name": "BIPA",
    "address": "LINZER STRASSE 174-180",
    "city": "WIEN",
    "postal": "1140"
  },
  {
    "lat": "48.2008406",
    "lng": "16.2567992",
    "id": 1560451,
    "name": "BIPA",
    "address": "BERGMILLERGASSE 5",
    "city": "WIEN",
    "postal": "1140"
  },
  {
    "lat": "48.1919665",
    "lng": "16.2871953",
    "id": 1560452,
    "name": "BIPA",
    "address": "ZEHETNERGASSE 6",
    "city": "WIEN",
    "postal": "1140"
  },
  {
    "lat": "48.2072168",
    "lng": "16.2239023",
    "id": 1560453,
    "name": "BIPA",
    "description": "AUHOFCENTER",
    "address": "A. SCHWEITZER-GASSE 6\/22",
    "city": "WIEN",
    "postal": "1140"
  },
  {
    "lat": "48.1988231",
    "lng": "16.3117683",
    "id": 1560454,
    "name": "BIPA",
    "address": "HÜTTELDORFER STRASSE 121",
    "city": "WIEN",
    "postal": "1140"
  },
  {
    "lat": "48.1936599",
    "lng": "16.3106666",
    "id": 1560455,
    "name": "BIPA",
    "address": "LINZER STRASSE 46",
    "city": "WIEN",
    "postal": "1140"
  },
  {
    "lat": "48.1975227",
    "lng": "16.2994532",
    "id": 1560456,
    "name": "BIPA",
    "address": "HÜTTELDORFER STRASSE 187",
    "city": "WIEN",
    "postal": "1140"
  },
  {
    "lat": "48.2022937",
    "lng": "16.3083316",
    "id": 1560457,
    "name": "BIPA",
    "address": "KENDLERSTRASSE 23-25",
    "city": "WIEN",
    "postal": "1140"
  },
  {
    "lat": "48.1973006",
    "lng": "16.2931071",
    "id": 1560458,
    "name": "BIPA",
    "description": "ECKE MITISGASSE 21",
    "address": "HÜTTELDORFER STRASSE 148",
    "city": "WIEN",
    "postal": "1140"
  },
  {
    "lat": "48.1978174",
    "lng": "16.3221093",
    "id": 1560459,
    "name": "BIPA",
    "address": "MEISELSTRASSE 8",
    "city": "WIEN",
    "postal": "1150"
  },
  {
    "lat": "48.1879953",
    "lng": "16.3320593",
    "id": 1560460,
    "name": "BIPA",
    "description": "ECKE ARNSTEINSTRASSE",
    "address": "SECHSHAUSERSTRASSE 46",
    "city": "WIEN",
    "postal": "1150"
  },
  {
    "lat": "48.1990665",
    "lng": "16.3222518",
    "id": 1560461,
    "name": "BIPA",
    "description": "ECKE KANNEGASSE 1",
    "address": "HÜTTELDORFER STRASSE 58",
    "city": "WIEN",
    "postal": "1150"
  },
  {
    "lat": "48.196736",
    "lng": "16.3375209",
    "id": 1560462,
    "name": "BIPA",
    "description": "WESTBAHNHOF",
    "address": "EUROPAPLATZ 1",
    "city": "WIEN",
    "postal": "1150"
  },
  {
    "lat": "48.1983356",
    "lng": "16.3277277",
    "id": 1560463,
    "name": "BIPA",
    "address": "MÄRZSTRASSE 54",
    "city": "WIEN",
    "postal": "1150"
  },
  {
    "lat": "48.1946977",
    "lng": "16.3368276",
    "id": 1560464,
    "name": "BIPA",
    "address": "MARIAHILFER STRASSE 139",
    "city": "WIEN",
    "postal": "1150"
  },
  {
    "lat": "48.203601",
    "lng": "16.3348482",
    "id": 1560465,
    "name": "BIPA",
    "description": "LUGNER CITY, 1. OG",
    "address": "GABLENZGASSE 5-13",
    "city": "WIEN",
    "postal": "1150"
  },
  {
    "lat": "48.2111191",
    "lng": "16.3370384",
    "id": 1560466,
    "name": "BIPA",
    "address": "NEULERCHENFELDER STR. 14",
    "city": "WIEN",
    "postal": "1160"
  },
  {
    "lat": "48.2098202",
    "lng": "16.3295225",
    "id": 1560467,
    "name": "BIPA",
    "address": "THALIASTRASSE 47",
    "city": "WIEN",
    "postal": "1160"
  },
  {
    "lat": "48.208557",
    "lng": "16.3371019",
    "id": 1560468,
    "name": "BIPA",
    "address": "THALIASTRASSE 5",
    "city": "WIEN",
    "postal": "1160"
  },
  {
    "lat": "48.2121773",
    "lng": "16.3160646",
    "id": 1560469,
    "name": "BIPA",
    "address": "THALIASTRASSE 114",
    "city": "WIEN",
    "postal": "1160"
  },
  {
    "lat": "48.2135035",
    "lng": "16.3288819",
    "id": 1560470,
    "name": "BIPA",
    "description": "ECKE DEINHARTSTEINSTRASSE",
    "address": "OTTAKRINGER STRASSE 69",
    "city": "WIEN",
    "postal": "1160"
  },
  {
    "lat": "48.2144109",
    "lng": "16.3347049",
    "id": 1560471,
    "name": "BIPA",
    "description": "ECKE WEYPRECHTGASSE",
    "address": "OTTAKRINGER STRASSE 37",
    "city": "WIEN",
    "postal": "1160"
  },
  {
    "lat": "48.2132088",
    "lng": "16.3067754",
    "id": 1560472,
    "name": "BIPA",
    "description": "ECKE MAROLTINGERGASSE",
    "address": "THALIASTRASSE 147",
    "city": "WIEN",
    "postal": "1160"
  },
  {
    "lat": "48.2188174",
    "lng": "16.327318",
    "id": 1560473,
    "name": "BIPA",
    "address": "HERNALSER HAUPTSTRASSE 91",
    "city": "WIEN",
    "postal": "1170"
  },
  {
    "lat": "48.2177909",
    "lng": "16.332451",
    "id": 1560474,
    "name": "BIPA",
    "description": "ECKE KALVARIENBERGGASSE",
    "address": "ELTERLEINPLATZ 2",
    "city": "WIEN",
    "postal": "1170"
  },
  {
    "lat": "48.2215871",
    "lng": "16.3204843",
    "id": 1560475,
    "name": "BIPA",
    "description": "ECKE WURLITZERGASSE",
    "address": "HERNALSER HAUPTSTR. 139",
    "city": "WIEN",
    "postal": "1170"
  },
  {
    "lat": "48.2250959",
    "lng": "16.3104856",
    "id": 1560476,
    "name": "BIPA",
    "address": "HERNALSER HAUPTSTR. 211",
    "city": "WIEN",
    "postal": "1170"
  },
  {
    "lat": "48.2181822",
    "lng": "16.3312376",
    "id": 1560477,
    "name": "BIPA",
    "description": "EKZ HERNALS",
    "address": "ELTERLEINPLATZ 9-12",
    "city": "WIEN",
    "postal": "1170"
  },
  {
    "lat": "48.2239333",
    "lng": "16.3362992",
    "id": 1560478,
    "name": "BIPA",
    "address": "KREUZGASSE 46",
    "city": "WIEN",
    "postal": "1180"
  },
  {
    "lat": "48.2313694",
    "lng": "16.3283891",
    "id": 1560479,
    "name": "BIPA",
    "description": "ECKE HERBECKSTRASSE",
    "address": "GERSTHOFERSTRASSE 53",
    "city": "WIEN",
    "postal": "1180"
  },
  {
    "lat": "48.2274843",
    "lng": "16.3379441",
    "id": 1560480,
    "name": "BIPA",
    "address": "WÄHRINGER STRASSE 129",
    "city": "WIEN",
    "postal": "1180"
  },
  {
    "lat": "48.2268955",
    "lng": "16.3399323",
    "id": 1560481,
    "name": "BIPA",
    "address": "WÄHRINGERSTRASSE 123",
    "city": "WIEN",
    "postal": "1180"
  },
  {
    "lat": "48.2396341",
    "lng": "16.3489153",
    "id": 1560482,
    "name": "BIPA",
    "address": "BILLROTHSTRASSE 53",
    "city": "WIEN",
    "postal": "1190"
  },
  {
    "lat": "48.2437096",
    "lng": "16.3423116",
    "id": 1560483,
    "name": "BIPA",
    "description": "ECKE ARBESBACHGASSE",
    "address": "OBKIRCHERGASSE 30A",
    "city": "WIEN",
    "postal": "1190"
  },
  {
    "lat": "48.2562048",
    "lng": "16.340253",
    "id": 1560484,
    "name": "BIPA",
    "address": "HIMMELSTRASSE 17",
    "city": "WIEN",
    "postal": "1190"
  },
  {
    "lat": "48.2453033",
    "lng": "16.3615009",
    "id": 1560485,
    "name": "BIPA",
    "address": "HEILIGENSTÄDTERSTR. 81-87",
    "city": "WIEN",
    "postal": "1190"
  },
  {
    "lat": "48.2443309",
    "lng": "16.3304842",
    "id": 1560486,
    "name": "BIPA",
    "address": "WEINBERGGASSE 70-74",
    "city": "WIEN",
    "postal": "1190"
  },
  {
    "lat": "48.2435295",
    "lng": "16.3221627",
    "id": 1560487,
    "name": "BIPA",
    "description": "EKZ KROTTENBACHSTRASSE",
    "address": "KROTTENBACHSTRASSE 114",
    "city": "WIEN",
    "postal": "1190"
  },
  {
    "lat": "48.2402294",
    "lng": "16.3555631",
    "id": 1560488,
    "name": "BIPA",
    "address": "DÖBLINGER HAUPTSTR. 76",
    "city": "WIEN",
    "postal": "1190"
  },
  {
    "lat": "48.2465702",
    "lng": "16.3747497",
    "id": 1560489,
    "name": "BIPA",
    "address": "LEYSTRASSE 8",
    "city": "WIEN",
    "postal": "1200"
  },
  {
    "lat": "48.2310955",
    "lng": "16.3670997",
    "id": 1560490,
    "name": "BIPA",
    "address": "KLOSTERNEUBURGER STR. 46",
    "city": "WIEN",
    "postal": "1200"
  },
  {
    "lat": "48.2372409",
    "lng": "16.3795574",
    "id": 1560491,
    "name": "BIPA",
    "description": "ECKE HELLWAGSTRASSE",
    "address": "DRESDNERSTRASSE 33-47",
    "city": "WIEN",
    "postal": "1200"
  },
  {
    "lat": "48.2418254",
    "lng": "16.3834045",
    "id": 1560492,
    "name": "BIPA",
    "description": "RIVERGATE",
    "address": "ENGERTHSTRASSE 59",
    "city": "WIEN",
    "postal": "1200"
  },
  {
    "lat": "48.230886",
    "lng": "16.3755081",
    "id": 1560493,
    "name": "BIPA",
    "address": "WALLENSTEINSTRASSE 60",
    "city": "WIEN",
    "postal": "1200"
  },
  {
    "lat": "48.2284227",
    "lng": "16.3688703",
    "id": 1560494,
    "name": "BIPA",
    "description": "ECKE STAUDINGERGASSE",
    "address": "KLOSTERNEUBURGER STR. 18",
    "city": "WIEN",
    "postal": "1200"
  },
  {
    "lat": "48.2402926",
    "lng": "16.36958",
    "id": 1560495,
    "name": "BIPA",
    "address": "ADALBERT-STIFTER-STR. 33A",
    "city": "WIEN",
    "postal": "1200"
  },
  {
    "lat": "48.254083",
    "lng": "16.4275383",
    "id": 1560496,
    "name": "BIPA",
    "description": "HDZ CAMPUS DONAUFELD",
    "address": "ANGYALFÖLDSTR. 101, TOP1",
    "city": "WIEN",
    "postal": "1210"
  },
  {
    "lat": "48.257535",
    "lng": "16.397904",
    "id": 1560497,
    "name": "BIPA",
    "address": "AM SPITZ 5",
    "city": "WIEN",
    "postal": "1210"
  },
  {
    "lat": "48.2915514",
    "lng": "16.4164599",
    "id": 1560498,
    "name": "BIPA",
    "description": "B7 EKAZENT STAMMERSDORF",
    "address": "BRÜNNER STRASSE 219",
    "city": "WIEN",
    "postal": "1210"
  },
  {
    "lat": "48.252455",
    "lng": "16.4142073",
    "id": 1560499,
    "name": "BIPA",
    "description": "ECKE DONAUFELDER STRASSE",
    "address": "FULTONSTRASSE 26",
    "city": "WIEN",
    "postal": "1210"
  },
  {
    "lat": "48.2553528",
    "lng": "16.4085939",
    "id": 1560500,
    "name": "BIPA",
    "address": "ANDREAS HOFER-STRASSE 1",
    "city": "WIEN",
    "postal": "1210"
  },
  {
    "lat": "48.2723047",
    "lng": "16.4462569",
    "id": 1560501,
    "name": "BIPA",
    "description": "GROSSFELDZENTRUM",
    "address": "KÜRSCHNERGASSE 9",
    "city": "WIEN",
    "postal": "1210"
  },
  {
    "lat": "48.2664657",
    "lng": "16.398233",
    "id": 1560502,
    "name": "BIPA",
    "description": "SCN - SHOPPING CITY NORD, EG",
    "address": "IGNAZ KÖCK-STRASSE 1",
    "city": "WIEN",
    "postal": "1210"
  },
  {
    "lat": "48.2755613",
    "lng": "16.4076572",
    "id": 1560503,
    "name": "BIPA",
    "address": "BRÜNNERSTRASSE 123-125",
    "city": "WIEN",
    "postal": "1210"
  },
  {
    "lat": "48.2969437",
    "lng": "16.3783299",
    "id": 1560504,
    "name": "BIPA",
    "description": "CENTER 21",
    "address": "PRAGERSTRASSE 286",
    "city": "WIEN",
    "postal": "1210"
  },
  {
    "lat": "48.2453812",
    "lng": "16.4394704",
    "id": 1560505,
    "name": "BIPA",
    "description": "ECKE WAGRAMER STRASSE 102-106",
    "address": "STEIGENTESCHGASSE 16",
    "city": "WIEN",
    "postal": "1220"
  },
  {
    "lat": "48.2275423",
    "lng": "16.4213072",
    "id": 1560506,
    "name": "BIPA",
    "address": "SCHÜTTAUSTRASSE 48-50",
    "city": "WIEN",
    "postal": "1220"
  },
  {
    "lat": "48.2325035",
    "lng": "16.4138135",
    "id": 1560507,
    "name": "BIPA",
    "description": "TECH GATE VIENNA",
    "address": "DONAU-CITY-STRASSE 1",
    "city": "WIEN",
    "postal": "1220"
  },
  {
    "lat": "48.2501836",
    "lng": "16.444207",
    "id": 1560508,
    "name": "BIPA",
    "description": "K1 SHOPPING CENTER",
    "address": "KAGRANER PLATZ 1-3",
    "city": "WIEN",
    "postal": "1220"
  },
  {
    "lat": "48.2302128",
    "lng": "16.4461207",
    "id": 1560509,
    "name": "BIPA",
    "description": "EKAZENT VIKTOR-KAPLAN-STRASSE",
    "address": "VIKTOR-KAPLAN-STRASSE 11",
    "city": "WIEN",
    "postal": "1220"
  },
  {
    "lat": "48.2428728",
    "lng": "16.4375191",
    "id": 1560510,
    "name": "BIPA",
    "description": "DZ - DONAUZENTRUM, EG",
    "address": "WAGRAMER STRASSE 94",
    "city": "WIEN",
    "postal": "1220"
  },
  {
    "lat": "48.2247647",
    "lng": "16.5006613",
    "id": 1560511,
    "name": "BIPA",
    "description": "SEESTADT ASPERN",
    "address": "SCHENK-DANZINGER-GASSE 1",
    "city": "WIEN",
    "postal": "1220"
  },
  {
    "lat": "48.2438453",
    "lng": "16.4574596",
    "id": 1560512,
    "name": "BIPA",
    "description": "ECKE POGRELZSTRASSE 36",
    "address": "HIRSCHSTETTNER STRASSE 35",
    "city": "WIEN",
    "postal": "1220"
  },
  {
    "lat": "48.2507538",
    "lng": "16.4897753",
    "id": 1560513,
    "name": "BIPA",
    "description": "ECKE ZIEGELHOFSTRASSE",
    "address": "BREITENLEER STRASSE 204",
    "city": "WIEN",
    "postal": "1220"
  },
  {
    "lat": "48.2252073",
    "lng": "16.4519434",
    "id": 1560514,
    "name": "BIPA",
    "address": "STADLAUER STRASSE 5",
    "city": "WIEN",
    "postal": "1220"
  },
  {
    "lat": "48.2178326",
    "lng": "16.4857121",
    "id": 1560515,
    "name": "BIPA",
    "address": "SIEGESPLATZ 5",
    "city": "WIEN",
    "postal": "1220"
  },
  {
    "lat": "48.2380837",
    "lng": "16.4780468",
    "id": 1560516,
    "name": "BIPA",
    "description": "EKZ",
    "address": "ZIEGELHOFSTRASSE 26",
    "city": "WIEN",
    "postal": "1220"
  },
  {
    "lat": "48.2425222",
    "lng": "16.4353676",
    "id": 1560517,
    "name": "BIPA",
    "description": "DZ - DONAUZENTRUM, 1. OG",
    "address": "WAGRAMER STRASSE 83",
    "city": "WIEN",
    "postal": "1220"
  },
  {
    "lat": "48.2561887",
    "lng": "16.4516851",
    "id": 1560518,
    "name": "BIPA",
    "address": "RENNBAHNWEG 46",
    "city": "WIEN",
    "postal": "1220"
  },
  {
    "lat": "48.2278678",
    "lng": "16.4561191",
    "id": 1560519,
    "name": "BIPA",
    "address": "HAUSGRUNDWEG 3",
    "city": "WIEN",
    "postal": "1220"
  },
  {
    "lat": "48.151786",
    "lng": "16.2913595",
    "id": 1560520,
    "name": "BIPA",
    "address": "GATTEREDERSTRASSE 9",
    "city": "WIEN",
    "postal": "1230"
  },
  {
    "lat": "48.1376112",
    "lng": "16.2784726",
    "id": 1560521,
    "name": "BIPA",
    "description": "RIVERSIDE, EG",
    "address": "BREITENFURTER STRASSE 372",
    "city": "WIEN",
    "postal": "1230"
  },
  {
    "lat": "48.1504769",
    "lng": "16.2684013",
    "id": 1560522,
    "name": "BIPA",
    "address": "MAURER HAUPTPLATZ 3",
    "city": "WIEN",
    "postal": "1230"
  },
  {
    "lat": "48.151418",
    "lng": "16.314707",
    "id": 1560523,
    "name": "BIPA",
    "description": "KAUFPARK ALTERLAA",
    "address": "A. BAUMGARTNER STR. 44",
    "city": "WIEN",
    "postal": "1230"
  },
  {
    "lat": "48.1377892",
    "lng": "16.2999591",
    "id": 1560524,
    "name": "BIPA",
    "address": "PERFEKTASTRASSE 106",
    "city": "WIEN",
    "postal": "1230"
  },
  {
    "lat": "48.1315478",
    "lng": "16.3160257",
    "id": 1560525,
    "name": "BIPA",
    "address": "AKAZIENGASSE 44-46",
    "city": "WIEN",
    "postal": "1230"
  },
  {
    "lat": "48.1337939",
    "lng": "16.262869",
    "id": 1560526,
    "name": "BIPA",
    "address": "KETZERGASSE 354",
    "city": "WIEN",
    "postal": "1230"
  },
  {
    "lat": "48.1466694",
    "lng": "16.2957292",
    "id": 1560527,
    "name": "BIPA",
    "address": "LEVASSEURGASSE 4",
    "city": "WIEN",
    "postal": "1230"
  },
  {
    "lat": "48.1217099",
    "lng": "16.5629356",
    "id": 1560528,
    "name": "BIPA",
    "description": "E0 ANKUNFTSEBENE",
    "address": "CHECK-IN 3, TOP 2",
    "city": "WIEN FLUGHAFEN",
    "postal": "1300"
  },
  {
    "lat": "48.3853414",
    "lng": "16.2373243",
    "id": 1560529,
    "name": "BIPA",
    "address": "WIENER STRASSE 38",
    "city": "STOCKERAU",
    "postal": "2000"
  },
  {
    "lat": "48.3851693",
    "lng": "16.2137064",
    "id": 1560530,
    "name": "BIPA",
    "description": "MARKTGASSE STOCKERAU",
    "address": "HAUPTSTRASSE 38-42",
    "city": "STOCKERAU",
    "postal": "2000"
  },
  {
    "lat": "48.5745397",
    "lng": "16.07576",
    "id": 1560531,
    "name": "BIPA",
    "description": "ECKE ZNAIMERSTRASSE",
    "address": "GEWERBERING 5",
    "city": "HOLLABRUNN",
    "postal": "2020"
  },
  {
    "lat": "48.564873",
    "lng": "16.0789654",
    "id": 1560532,
    "name": "BIPA",
    "address": "SPARKASSEGASSE 15",
    "city": "HOLLABRUNN",
    "postal": "2020"
  },
  {
    "lat": "48.7565702",
    "lng": "15.951044",
    "id": 1560533,
    "name": "BIPA",
    "address": "HAUPTPLATZ 17",
    "city": "RETZ",
    "postal": "2070"
  },
  {
    "lat": "48.3435534",
    "lng": "16.3344525",
    "id": 1560534,
    "name": "BIPA",
    "address": "HAUPTPLATZ 16",
    "city": "KORNEUBURG",
    "postal": "2100"
  },
  {
    "lat": "48.3606681",
    "lng": "16.3098402",
    "id": 1560535,
    "name": "BIPA",
    "address": "HAMMERSCHMIED STRASSE 4B",
    "city": "LEOBENDORF",
    "postal": "2100"
  },
  {
    "lat": "48.3837423",
    "lng": "16.5179004",
    "id": 1560536,
    "name": "BIPA",
    "address": "HAUPTSTRASSE 31",
    "city": "WOLKERSDORF",
    "postal": "2120"
  },
  {
    "lat": "48.5612584",
    "lng": "16.5791841",
    "id": 1560537,
    "name": "BIPA",
    "address": "MITSCHASTRASSE 41",
    "city": "MISTELBACH",
    "postal": "2130"
  },
  {
    "lat": "48.5703545",
    "lng": "16.5726895",
    "id": 1560538,
    "name": "BIPA",
    "address": "HAUPTPLATZ 7-8",
    "city": "MISTELBACH",
    "postal": "2130"
  },
  {
    "lat": "48.7219194",
    "lng": "16.3853767",
    "id": 1560539,
    "name": "BIPA",
    "address": "STADTPLATZ 34",
    "city": "LAA\/THAYA",
    "postal": "2136"
  },
  {
    "lat": "48.6677305",
    "lng": "16.6291881",
    "id": 1560540,
    "name": "BIPA",
    "address": "DREIFALTIGKEITSPLATZ 6",
    "city": "POYSDORF",
    "postal": "2170"
  },
  {
    "lat": "48.3417929",
    "lng": "16.4665009",
    "id": 1560541,
    "name": "BIPA",
    "description": "G3 SHOPPING RESORT GERASDORF",
    "address": "G3 PLATZ 1, TOP B051",
    "city": "GERASDORF",
    "postal": "2201"
  },
  {
    "lat": "48.5452336",
    "lng": "16.7635735",
    "id": 1560542,
    "name": "BIPA",
    "address": "HAUPTSTRASSE 22",
    "city": "ZISTERSDORF",
    "postal": "2225"
  },
  {
    "lat": "48.3355715",
    "lng": "16.7166863",
    "id": 1560543,
    "name": "BIPA",
    "address": "BODENZEILE 6",
    "city": "GÄNSERNDORF",
    "postal": "2230"
  },
  {
    "lat": "48.3400044",
    "lng": "16.7259796",
    "id": 1560544,
    "name": "BIPA",
    "address": "BAHNSTRASSE 56",
    "city": "GÄNSERNDORF",
    "postal": "2230"
  },
  {
    "lat": "48.3208761",
    "lng": "16.655757",
    "id": 1560545,
    "name": "BIPA",
    "address": "HAUPTSTRASSE 315-325",
    "city": "STRASSHOF",
    "postal": "2231"
  },
  {
    "lat": "48.3048158",
    "lng": "16.5749594",
    "id": 1560546,
    "name": "BIPA",
    "description": "FMZ",
    "address": "DR.LEOPOLD FIGL STRASSE 3",
    "city": "DEUTSCH-WAGRAM",
    "postal": "2232"
  },
  {
    "lat": "48.6030132",
    "lng": "16.9027974",
    "id": 1560547,
    "name": "BIPA",
    "address": "BERNSTEINSTRASSE 1",
    "city": "HOHENAU\/MARCH",
    "postal": "2273"
  },
  {
    "lat": "48.2005862",
    "lng": "16.5518302",
    "id": 1560548,
    "name": "BIPA",
    "address": "DR. A. KRABICHLER-PLATZ 8",
    "city": "GROSS-ENZERSDORF",
    "postal": "2301"
  },
  {
    "lat": "48.2071887",
    "lng": "16.5452605",
    "id": 1560549,
    "name": "BIPA",
    "address": "EUROSTRASSE 6",
    "city": "GROSS-ENZERSDORF",
    "postal": "2301"
  },
  {
    "lat": "48.1381286",
    "lng": "16.4792859",
    "id": 1560550,
    "name": "BIPA",
    "address": "FRANZ SCHUBERT STRASSE 5-7",
    "city": "SCHWECHAT",
    "postal": "2320"
  },
  {
    "lat": "48.1430109",
    "lng": "16.4747805",
    "id": 1560551,
    "name": "BIPA",
    "description": "ES - EKZ SCHWECHAT",
    "address": "WIENER STRASSE 12-16",
    "city": "SCHWECHAT",
    "postal": "2320"
  },
  {
    "lat": "48.0863874",
    "lng": "16.4351999",
    "id": 1560552,
    "name": "BIPA",
    "address": "WIENER STRASSE 33-35",
    "city": "HIMBERG",
    "postal": "2325"
  },
  {
    "lat": "48.1101104",
    "lng": "16.3183089",
    "id": 1560553,
    "name": "BIPA",
    "description": "SCS - SHOPPING CITY SÜD",
    "address": "SCS ALLEE 115, TOP 140A",
    "city": "VÖSENDORF",
    "postal": "2331"
  },
  {
    "lat": "48.1306634",
    "lng": "16.3253304",
    "id": 1560555,
    "name": "BIPA",
    "description": "KAUFPARK VÖSENDORF",
    "address": "SCHÖNBRUNNER ALLEE 18",
    "city": "VÖSENDORF",
    "postal": "2331"
  },
  {
    "lat": "48.1092907",
    "lng": "16.3935455",
    "id": 1560556,
    "name": "BIPA",
    "description": "ECKE HENNERSDORFERSTRASSE",
    "address": "HAUPTSTRASSE 1",
    "city": "LEOPOLDSDORF",
    "postal": "2333"
  },
  {
    "lat": "48.0860674",
    "lng": "16.2964438",
    "id": 1560557,
    "name": "BIPA",
    "description": "CCM - CITY CENTER MÖDLING, BAHNHOF",
    "address": "WIENER STRASSE 2",
    "city": "MÖDLING",
    "postal": "2340"
  },
  {
    "lat": "48.086751",
    "lng": "16.2837944",
    "id": 1560558,
    "name": "BIPA",
    "address": "ENZERSDORFER STRASSE 5",
    "city": "MÖDLING",
    "postal": "2340"
  },
  {
    "lat": "48.0953294",
    "lng": "16.2841863",
    "id": 1560559,
    "name": "BIPA",
    "address": "HAUPTSTRASSE 39",
    "city": "MARIA ENZERSDORF",
    "postal": "2344"
  },
  {
    "lat": "48.1222767",
    "lng": "16.2928096",
    "id": 1560560,
    "name": "BIPA",
    "address": "BRUNNER FELDSTRASSE 42",
    "city": "BRUNN\/GEBIRGE",
    "postal": "2345"
  },
  {
    "lat": "48.0874657",
    "lng": "16.3098165",
    "id": 1560561,
    "name": "BIPA",
    "description": "REISENBAUERRING",
    "address": "BAHNSTRASSE 12",
    "city": "WIENER NEUDORF",
    "postal": "2351"
  },
  {
    "lat": "48.0487147",
    "lng": "16.3128503",
    "id": 1560562,
    "name": "BIPA",
    "address": "RATHAUSVIERTEL 3",
    "city": "GUNTRAMSDORF",
    "postal": "2353"
  },
  {
    "lat": "48.0550187",
    "lng": "16.3080084",
    "id": 1560563,
    "name": "BIPA",
    "address": "KAMMERINGSTRASSE 2",
    "city": "GUNTRAMSDORF",
    "postal": "2353"
  },
  {
    "lat": "48.0830632",
    "lng": "16.3479709",
    "id": 1560564,
    "name": "BIPA",
    "address": "ORTSSTRASSE 37",
    "city": "BIEDERMANNSDORF",
    "postal": "2362"
  },
  {
    "lat": "48.1180713",
    "lng": "16.2655785",
    "id": 1560565,
    "name": "BIPA",
    "address": "MARKTPLATZ 20",
    "city": "PERCHTOLDSDORF",
    "postal": "2380"
  },
  {
    "lat": "48.1161865",
    "lng": "16.1981396",
    "id": 1560566,
    "name": "BIPA",
    "address": "HAUPTSTRASSE 95",
    "city": "KALTENLEUTGEBEN",
    "postal": "2391"
  },
  {
    "lat": "48.1191211",
    "lng": "16.6108682",
    "id": 1560567,
    "name": "BIPA",
    "address": "SCHULGASSE 1",
    "city": "FISCHAMEND",
    "postal": "2401"
  },
  {
    "lat": "48.1490097",
    "lng": "16.9463225",
    "id": 1560568,
    "name": "BIPA",
    "description": "TOP 12, GALLERIA DANUBIA",
    "address": "PRESSBURGER REICHSSTR. 1",
    "city": "HAINBURG\/DONAU",
    "postal": "2410"
  },
  {
    "lat": "48.1403615",
    "lng": "16.9192116",
    "id": 1560569,
    "name": "BIPA",
    "address": "LANDSTRASSE 122",
    "city": "HAINBURG",
    "postal": "2410"
  },
  {
    "lat": "48.0877658",
    "lng": "17.0520312",
    "id": 1560570,
    "name": "BIPA",
    "address": "EISENSTÄDTER STRASSE 27",
    "city": "KITTSEE",
    "postal": "2421"
  },
  {
    "lat": "48.0710921",
    "lng": "16.5826616",
    "id": 1560571,
    "name": "BIPA",
    "address": "WIENER STRASSE 1",
    "city": "SCHWADORF",
    "postal": "2432"
  },
  {
    "lat": "47.9737407",
    "lng": "16.6022458",
    "id": 1560572,
    "name": "BIPA",
    "address": "HAUPTSTRASSE 41",
    "city": "MANNERSDORF\/L.",
    "postal": "2452"
  },
  {
    "lat": "48.0280199",
    "lng": "16.7272962",
    "id": 1560573,
    "name": "BIPA",
    "description": "INDUSTRIEGELÄNDE WEST",
    "address": "BUNDESSTRASSE 10",
    "city": "BRUCK\/LEITHA",
    "postal": "2460"
  },
  {
    "lat": "48.0227111",
    "lng": "16.7778268",
    "id": 1560574,
    "name": "BIPA",
    "address": "KIRCHENGASSE 24",
    "city": "BRUCK\/LEITHA",
    "postal": "2460"
  },
  {
    "lat": "47.9668705",
    "lng": "16.4011639",
    "id": 1560575,
    "name": "BIPA",
    "address": "WIENER STRASSE 25",
    "city": "EBREICHSDORF",
    "postal": "2483"
  },
  {
    "lat": "47.9117012",
    "lng": "16.3870202",
    "id": 1560576,
    "name": "BIPA",
    "address": "WIENER STRASSE 3",
    "city": "POTTENDORF",
    "postal": "2486"
  },
  {
    "lat": "47.8663321",
    "lng": "16.3770221",
    "id": 1560577,
    "name": "BIPA",
    "address": "HAUPTSTRASSE 53",
    "city": "NEUFELD\/LEITHA",
    "postal": "2491"
  },
  {
    "lat": "48.0072648",
    "lng": "16.2325845",
    "id": 1560578,
    "name": "BIPA",
    "address": "RATHAUSGASSE 11",
    "city": "BADEN",
    "postal": "2500"
  },
  {
    "lat": "48.0115575",
    "lng": "16.2531384",
    "id": 1560579,
    "name": "BIPA",
    "description": "FMZ BADEN",
    "address": "DAMMGASSE 62",
    "city": "BADEN",
    "postal": "2500"
  },
  {
    "lat": "48.0063782",
    "lng": "16.2354155",
    "id": 1560580,
    "name": "BIPA",
    "address": "BREYERSTRASSE 1A",
    "city": "BADEN",
    "postal": "2500"
  },
  {
    "lat": "48.0127371",
    "lng": "16.2940105",
    "id": 1560581,
    "name": "BIPA",
    "description": "ARKADIA",
    "address": "HAUPTPLATZ 17",
    "city": "TRAISKIRCHEN",
    "postal": "2514"
  },
  {
    "lat": "48.0202274",
    "lng": "16.2960659",
    "id": 1560582,
    "name": "BIPA",
    "address": "WIENER STRASSE 67",
    "city": "TRAISKIRCHEN",
    "postal": "2514"
  },
  {
    "lat": "47.9773504",
    "lng": "16.2219",
    "id": 1560583,
    "name": "BIPA",
    "description": "BEI MERKUR",
    "address": "INDUSTRIESTRASSE 12-14",
    "city": "BAD VÖSLAU",
    "postal": "2540"
  },
  {
    "lat": "47.9478001",
    "lng": "16.2215471",
    "id": 1560584,
    "name": "BIPA",
    "address": "BADNER STRASSE 1\/6",
    "city": "KOTTINGBRUNN",
    "postal": "2542"
  },
  {
    "lat": "47.9288922",
    "lng": "16.2163667",
    "id": 1560585,
    "name": "BIPA",
    "address": "HAUPTSTRASSE 12",
    "city": "LEOBERSDORF",
    "postal": "2544"
  },
  {
    "lat": "47.9451169",
    "lng": "16.1069691",
    "id": 1560586,
    "name": "BIPA",
    "address": "ALEXANDERSTRASSE 9",
    "city": "BERNDORF",
    "postal": "2560"
  },
  {
    "lat": "47.8976822",
    "lng": "16.2499182",
    "id": 1560587,
    "name": "BIPA",
    "address": "HAUPTPLATZ 2",
    "city": "SOLLENAU",
    "postal": "2601"
  },
  {
    "lat": "47.7212557",
    "lng": "16.0810021",
    "id": 1560588,
    "name": "BIPA",
    "description": "PASSAGE",
    "address": "HAUPTPLATZ 11",
    "city": "NEUNKIRCHEN",
    "postal": "2620"
  },
  {
    "lat": "47.7177069",
    "lng": "16.0370099",
    "id": 1560589,
    "name": "BIPA",
    "address": "RUEDLSTRASSE 15",
    "city": "TERNITZ",
    "postal": "2630"
  },
  {
    "lat": "47.6961981",
    "lng": "16.0199",
    "id": 1560590,
    "name": "BIPA",
    "address": "BUNDESSTRASSE 98",
    "city": "WIMPASSING\/SCH.",
    "postal": "2632"
  },
  {
    "lat": "47.6742309",
    "lng": "15.9405054",
    "id": 1560591,
    "name": "BIPA",
    "description": "EKZ GLOGGNITZ",
    "address": "WIENER STRASSE 8A, TOP 4",
    "city": "GLOGGNITZ",
    "postal": "2640"
  },
  {
    "lat": "47.8239072",
    "lng": "16.2567542",
    "id": 1560592,
    "name": "BIPA",
    "description": "MERKURCITY",
    "address": "STADIONSTRASSE 12",
    "city": "WIENER NEUSTADT",
    "postal": "2700"
  },
  {
    "lat": "47.8454826",
    "lng": "16.2433839",
    "id": 1560593,
    "name": "BIPA",
    "description": "FMZ NEUSTADT NORD",
    "address": "WIENER STRASSE 127",
    "city": "WIENER NEUSTADT",
    "postal": "2700"
  },
  {
    "lat": "48.2822233",
    "lng": "16.4126655",
    "id": 1560594,
    "name": "BIPA",
    "address": "GERASDORFERSTRASSE 31",
    "city": "WIENER NEUSTADT",
    "postal": "2700"
  },
  {
    "lat": "47.8137276",
    "lng": "16.2399014",
    "id": 1560595,
    "name": "BIPA",
    "address": "HERZOG LEOPOLD STRASSE 30",
    "city": "WIENER NEUSTADT",
    "postal": "2700"
  },
  {
    "lat": "47.8121976",
    "lng": "16.244449",
    "id": 1560596,
    "name": "BIPA",
    "address": "NEUNKIRCHNER STRASSE 9",
    "city": "WIENER NEUSTADT",
    "postal": "2700"
  },
  {
    "lat": "47.8731487",
    "lng": "16.1272866",
    "id": 1560597,
    "name": "BIPA",
    "address": "MARKTPLATZ 14",
    "city": "MARKT PIESTING",
    "postal": "2753"
  },
  {
    "lat": "47.8978775",
    "lng": "15.9629797",
    "id": 1560598,
    "name": "BIPA",
    "address": "HAUPTSTRASSE 70B",
    "city": "PERNITZ",
    "postal": "2763"
  },
  {
    "lat": "47.5023273",
    "lng": "16.2958697",
    "id": 1560599,
    "name": "BIPA",
    "address": "HAUPTPLATZ 31",
    "city": "KIRCHSCHLAG",
    "postal": "2860"
  },
  {
    "lat": "47.5543931",
    "lng": "16.0864354",
    "id": 1560600,
    "name": "BIPA",
    "address": "SONNECK 11",
    "city": "ASPANG MARKT",
    "postal": "2870"
  },
  {
    "lat": "48.2075865",
    "lng": "16.1770136",
    "id": 1560601,
    "name": "BIPA",
    "address": "HAUPTPLATZ 11",
    "city": "PURKERSDORF",
    "postal": "3002"
  },
  {
    "lat": "48.2178359",
    "lng": "16.1655009",
    "id": 1560602,
    "name": "BIPA",
    "address": "FRIEDRICH LINDNER-PLATZ 1",
    "city": "GABLITZ",
    "postal": "3003"
  },
  {
    "lat": "48.1770631",
    "lng": "16.0596297",
    "id": 1560603,
    "name": "BIPA",
    "address": "HAUPTSTRASSE 117A",
    "city": "PRESSBAUM",
    "postal": "3021"
  },
  {
    "lat": "48.1974467",
    "lng": "15.9081506",
    "id": 1560604,
    "name": "BIPA",
    "address": "RATHAUSPLATZ 29",
    "city": "NEULENGBACH",
    "postal": "3040"
  },
  {
    "lat": "48.1962593",
    "lng": "15.7644727",
    "id": 1560605,
    "name": "BIPA",
    "address": "HAINFELDER STRASSE 6",
    "city": "BÖHEIMKIRCHEN",
    "postal": "3071"
  },
  {
    "lat": "48.2215861",
    "lng": "15.6390295",
    "id": 1560606,
    "name": "BIPA",
    "description": "TRAISENCENTER",
    "address": "DR. A. SCHÄRF STRASSE 10",
    "city": "ST. PÖLTEN",
    "postal": "3100"
  },
  {
    "lat": "48.2068354",
    "lng": "15.6225743",
    "id": 1560607,
    "name": "BIPA",
    "description": "EKZ PROMENADE",
    "address": "BRUNNGASSE 13",
    "city": "ST. PÖLTEN",
    "postal": "3100"
  },
  {
    "lat": "48.1828702",
    "lng": "15.618817",
    "id": 1560608,
    "name": "BIPA",
    "description": "FMZ",
    "address": "ANTON SCHEIBLINGASSE 4",
    "city": "ST. PÖLTEN",
    "postal": "3100"
  },
  {
    "lat": "48.2055951",
    "lng": "15.6254857",
    "id": 1560609,
    "name": "BIPA",
    "address": "DOMGASSE 7",
    "city": "ST. PÖLTEN",
    "postal": "3100"
  },
  {
    "lat": "48.2233137",
    "lng": "15.637695",
    "id": 1560610,
    "name": "BIPA",
    "description": "TRAISENPARK, 1. OG",
    "address": "DR. A. SCHÄRF STR. 5-7",
    "city": "ST. PÖLTEN",
    "postal": "3107"
  },
  {
    "lat": "48.2795974",
    "lng": "15.6949085",
    "id": 1560611,
    "name": "BIPA",
    "description": "FMZ CITY CENTER HERZOGENBURG",
    "address": "ST. PÖLTNER STRASSE 46",
    "city": "HERZOGENBURG",
    "postal": "3130"
  },
  {
    "lat": "48.3502422",
    "lng": "15.7436266",
    "id": 1560612,
    "name": "BIPA",
    "address": "HAUPTPLATZ 8-9",
    "city": "TRAISMAUER",
    "postal": "3133"
  },
  {
    "lat": "48.1017994",
    "lng": "15.6049623",
    "id": 1560613,
    "name": "BIPA",
    "description": "FMZ CITY BOX",
    "address": "FLESCHPLATZ 2",
    "city": "WILHELMSBURG",
    "postal": "3150"
  },
  {
    "lat": "48.0358439",
    "lng": "15.8225581",
    "id": 1560614,
    "name": "BIPA",
    "address": "HAINFELDER BUNDESSTR. 89",
    "city": "HAINFELD",
    "postal": "3170"
  },
  {
    "lat": "48.1502212",
    "lng": "15.5459679",
    "id": 1560615,
    "name": "BIPA",
    "address": "HAUPTSTRASSE 7",
    "city": "OBER-GRAFENDORF",
    "postal": "3200"
  },
  {
    "lat": "48.0271907",
    "lng": "15.4352964",
    "id": 1560616,
    "name": "BIPA",
    "address": "ST. PÖLTNERSTRASSE 7",
    "city": "KIRCHBERG\/PIEL.",
    "postal": "3204"
  },
  {
    "lat": "48.1408639",
    "lng": "15.2812865",
    "id": 1560617,
    "name": "BIPA",
    "address": "HAUPTSTRASSE 33",
    "city": "RUPRECHTSHOFEN",
    "postal": "3244"
  },
  {
    "lat": "48.1288084",
    "lng": "15.139037",
    "id": 1560618,
    "name": "BIPA",
    "address": "MANKER STRASSE 1",
    "city": "WIESELBURG",
    "postal": "3250"
  },
  {
    "lat": "48.1033286",
    "lng": "15.1357121",
    "id": 1560619,
    "name": "BIPA",
    "address": "ERLAUFTALSTRASSE 35",
    "city": "PURGSTALL\/ERLAUF",
    "postal": "3251"
  },
  {
    "lat": "47.9847868",
    "lng": "15.0257458",
    "id": 1560620,
    "name": "BIPA",
    "address": "UNTERER MARKT 22",
    "city": "GRESTEN",
    "postal": "3264"
  },
  {
    "lat": "48.0064228",
    "lng": "15.1660538",
    "id": 1560621,
    "name": "BIPA",
    "address": "HAUPTSTRASSE 14",
    "city": "SCHEIBBS",
    "postal": "3270"
  },
  {
    "lat": "48.1212448",
    "lng": "14.8686207",
    "id": 1560622,
    "name": "BIPA",
    "description": "CCA - CITY CENTER AMSTETTEN, EG",
    "address": "WAIDHOFNERSTRASSE 1",
    "city": "AMSTETTEN",
    "postal": "3300"
  },
  {
    "lat": "48.1222761",
    "lng": "14.8747738",
    "id": 1560623,
    "name": "BIPA",
    "address": "MÜHLENSTRASSE 4",
    "city": "AMSTETTEN",
    "postal": "3300"
  },
  {
    "lat": "47.8572212",
    "lng": "14.6640551",
    "id": 1560624,
    "name": "BIPA",
    "address": "MARKTPLATZ 2",
    "city": "WEYER MARKT",
    "postal": "3335"
  },
  {
    "lat": "47.9610027",
    "lng": "14.7730705",
    "id": 1560625,
    "name": "BIPA",
    "address": "UNTERER STADTPLATZ 41",
    "city": "WAIDHOFEN\/YBBS",
    "postal": "3340"
  },
  {
    "lat": "48.1129111",
    "lng": "14.5615596",
    "id": 1560626,
    "name": "BIPA",
    "address": "LINZER STRASSE 29",
    "city": "HAAG",
    "postal": "3350"
  },
  {
    "lat": "48.0804126",
    "lng": "14.8119636",
    "id": 1560627,
    "name": "BIPA",
    "description": "MEZ - MOSTVIERTLER EINKAUFSZENTRUM",
    "address": "SCHWARZER WEG 2, TOP 7",
    "city": "NEUFURTH",
    "postal": "3363"
  },
  {
    "lat": "48.1719103",
    "lng": "15.0849418",
    "id": 1560628,
    "name": "BIPA",
    "description": "FMZ YBBSILON",
    "address": "WÜSTERSTRASSE 6",
    "city": "YBBS\/DONAU",
    "postal": "3370"
  },
  {
    "lat": "48.2099877",
    "lng": "15.2085422",
    "id": 1560629,
    "name": "BIPA",
    "description": "EKZ EUROSPAR",
    "address": "MANKER STRASSE 13",
    "city": "PÖCHLARN",
    "postal": "3380"
  },
  {
    "lat": "48.201053",
    "lng": "15.4017955",
    "id": 1560630,
    "name": "BIPA",
    "address": "WIENER STRASSE 21",
    "city": "LOOSDORF",
    "postal": "3382"
  },
  {
    "lat": "48.2276226",
    "lng": "15.3323835",
    "id": 1560631,
    "name": "BIPA",
    "address": "RATHAUSPLATZ 5",
    "city": "MELK",
    "postal": "3390"
  },
  {
    "lat": "48.2972048",
    "lng": "16.3336486",
    "id": 1560632,
    "name": "BIPA",
    "address": "WEIDLINGER STRASSE 2",
    "city": "KLOSTERNEUBURG",
    "postal": "3400"
  },
  {
    "lat": "48.3090616",
    "lng": "16.3236975",
    "id": 1560633,
    "name": "BIPA",
    "address": "STADTPLATZ 33",
    "city": "KLOSTERNEUBURG",
    "postal": "3400"
  },
  {
    "lat": "48.3313221",
    "lng": "16.0504166",
    "id": 1560634,
    "name": "BIPA",
    "address": "HAUPTPLATZ 22",
    "city": "TULLN",
    "postal": "3430"
  },
  {
    "lat": "48.3208396",
    "lng": "16.021435",
    "id": 1560635,
    "name": "BIPA",
    "description": "EINKAUFSMEILE LANGENROHR",
    "address": "EUROPASTRASSE 7",
    "city": "LANGENROHR",
    "postal": "3442"
  },
  {
    "lat": "48.2559023",
    "lng": "16.0090173",
    "id": 1560636,
    "name": "BIPA",
    "address": "HOFERSTRASSE 2",
    "city": "SIEGHARTSKIRCHEN",
    "postal": "3443"
  },
  {
    "lat": "48.3011179",
    "lng": "15.8937334",
    "id": 1560637,
    "name": "BIPA",
    "address": "RAIFFEISENPLATZ 5",
    "city": "HEILIGENEICH",
    "postal": "3452"
  },
  {
    "lat": "48.4161001",
    "lng": "15.6214674",
    "id": 1560638,
    "name": "BIPA",
    "description": "BÜHL CENTER, 1. OG",
    "address": "WIENER STRASSE 96-102",
    "city": "KREMS\/DONAU",
    "postal": "3500"
  },
  {
    "lat": "48.4104903",
    "lng": "15.5975591",
    "id": 1560639,
    "name": "BIPA",
    "description": "FUSSGÄNGERZONE",
    "address": "OBERE LANDSTRASSE 24",
    "city": "KREMS\/DONAU",
    "postal": "3500"
  },
  {
    "lat": "48.4080894",
    "lng": "15.6142963",
    "id": 1560640,
    "name": "BIPA",
    "address": "DR. GSCHMEIDLER STR. 16",
    "city": "KREMS\/DONAU",
    "postal": "3500"
  },
  {
    "lat": "48.4726073",
    "lng": "15.6765011",
    "id": 1560641,
    "name": "BIPA",
    "address": "RATHAUSSTRASSE 1-3",
    "city": "LANGENLOIS",
    "postal": "3550"
  },
  {
    "lat": "48.6625922",
    "lng": "15.6460574",
    "id": 1560642,
    "name": "BIPA",
    "address": "PRAGER STRASSE 65",
    "city": "HORN",
    "postal": "3580"
  },
  {
    "lat": "48.3179383",
    "lng": "15.201539",
    "id": 1560643,
    "name": "BIPA",
    "address": "HAUPTPLATZ 4",
    "city": "PÖGGSTALL",
    "postal": "3650"
  },
  {
    "lat": "48.4764873",
    "lng": "15.9803938",
    "id": 1560644,
    "name": "BIPA",
    "address": "HORNER STRASSE 26",
    "city": "GROSSWEIKERSDORF",
    "postal": "3701"
  },
  {
    "lat": "48.5282107",
    "lng": "15.9277907",
    "id": 1560645,
    "name": "BIPA",
    "address": "HAUPTPLATZ 6",
    "city": "ZIERSDORF",
    "postal": "3710"
  },
  {
    "lat": "48.8143006",
    "lng": "15.2837089",
    "id": 1560646,
    "name": "BIPA",
    "address": "MORITZ SCHADEK GASSE 23",
    "city": "WAIDHOFEN\/THAYA",
    "postal": "3830"
  },
  {
    "lat": "48.8590017",
    "lng": "15.1199836",
    "id": 1560647,
    "name": "BIPA",
    "address": "SCHREMSER STRASSE 25A",
    "city": "HEIDENREICHSTEI",
    "postal": "3860"
  },
  {
    "lat": "48.6005804",
    "lng": "15.1914311",
    "id": 1560648,
    "name": "BIPA",
    "address": "ANDRE FREYSKORN STRASSE 1",
    "city": "ZWETTL",
    "postal": "3910"
  },
  {
    "lat": "48.5738803",
    "lng": "14.9583051",
    "id": 1560649,
    "name": "BIPA",
    "address": "HAUPTPLATZ 37-38",
    "city": "GROSS GERUNGS",
    "postal": "3920"
  },
  {
    "lat": "48.7929899",
    "lng": "15.0679049",
    "id": 1560650,
    "name": "BIPA",
    "address": "SCHULGASSE 11",
    "city": "SCHREMS",
    "postal": "3943"
  },
  {
    "lat": "48.7728688",
    "lng": "14.9875778",
    "id": 1560651,
    "name": "BIPA",
    "address": "STADTPLATZ 46",
    "city": "GMÜND",
    "postal": "3950"
  },
  {
    "lat": "48.2760026",
    "lng": "14.2983962",
    "id": 1560652,
    "name": "BIPA",
    "description": "EKZ MULDENSTRASSE",
    "address": "EINSTEINSTRASSE 3",
    "city": "LINZ",
    "postal": "4020"
  },
  {
    "lat": "48.3043748",
    "lng": "14.2881211",
    "id": 1560653,
    "name": "BIPA",
    "address": "TAUBENMARKT 1",
    "city": "LINZ",
    "postal": "4020"
  },
  {
    "lat": "48.2537585",
    "lng": "14.2800478",
    "id": 1560654,
    "name": "BIPA",
    "description": "INFRA CENTER",
    "address": "WEGSCHEIDERSTRASSE 3",
    "city": "LINZ",
    "postal": "4020"
  },
  {
    "lat": "48.2532888",
    "lng": "14.3096275",
    "id": 1560655,
    "name": "BIPA",
    "address": "DAUPHINESTRASSE 29",
    "city": "LINZ",
    "postal": "4020"
  },
  {
    "lat": "48.3022267",
    "lng": "14.2975657",
    "id": 1560656,
    "name": "BIPA",
    "address": "STARHEMBERGSTRASSE 12",
    "city": "LINZ",
    "postal": "4020"
  },
  {
    "lat": "48.3086523",
    "lng": "14.298253",
    "id": 1560657,
    "name": "BIPA",
    "address": "LEDERERGASSE 38",
    "city": "LINZ",
    "postal": "4020"
  },
  {
    "lat": "48.2710618",
    "lng": "14.2928811",
    "id": 1560658,
    "name": "BIPA",
    "address": "AM BINDERMICHL 43",
    "city": "LINZ",
    "postal": "4020"
  },
  {
    "lat": "48.2904658",
    "lng": "14.2910435",
    "id": 1560659,
    "name": "BIPA",
    "description": "HAUPTBAHNHOF",
    "address": "BAHNHOFPLATZ 3-6",
    "city": "LINZ",
    "postal": "4020"
  },
  {
    "lat": "48.2890576",
    "lng": "14.2980924",
    "id": 1560660,
    "name": "BIPA",
    "address": "WIENER STRASSE 16",
    "city": "LINZ",
    "postal": "4020"
  },
  {
    "lat": "48.3016895",
    "lng": "14.2917386",
    "id": 1560661,
    "name": "BIPA",
    "description": "EKZ ATRIUM CITY CENTER",
    "address": "MOZARTSTRASSE 7",
    "city": "LINZ",
    "postal": "4020"
  },
  {
    "lat": "48.2966327",
    "lng": "14.2921954",
    "id": 1560662,
    "name": "BIPA",
    "address": "LANDSTRASSE 105",
    "city": "LINZ",
    "postal": "4020"
  },
  {
    "lat": "48.2492549",
    "lng": "14.3082811",
    "id": 1560663,
    "name": "BIPA",
    "description": "EKZ AUWIESEN",
    "address": "WÜSTENROTPLATZ 4",
    "city": "LINZ",
    "postal": "4020"
  },
  {
    "lat": "48.2918984",
    "lng": "14.3036106",
    "id": 1560664,
    "name": "BIPA",
    "description": "LENAUPARK",
    "address": "HAMERLINGSTRASSE 46",
    "city": "LINZ",
    "postal": "4020"
  },
  {
    "lat": "48.313754",
    "lng": "14.2816988",
    "id": 1560665,
    "name": "BIPA",
    "address": "HAUPTSTRASSE 50",
    "city": "LINZ URFAHR",
    "postal": "4040"
  },
  {
    "lat": "48.3276285",
    "lng": "14.3253012",
    "id": 1560666,
    "name": "BIPA",
    "address": "FREISTÄDTERSTRASSE 400",
    "city": "LINZ",
    "postal": "4040"
  },
  {
    "lat": "48.3143678",
    "lng": "14.2836113",
    "id": 1560667,
    "name": "BIPA",
    "description": "EKZ LENTIA",
    "address": "BLÜTENSTRASSE 13-23",
    "city": "LINZ",
    "postal": "4040"
  },
  {
    "lat": "48.220066",
    "lng": "14.2392497",
    "id": 1560668,
    "name": "BIPA",
    "address": "HEINRICH GRUBER-STRASSE 3",
    "city": "TRAUN",
    "postal": "4050"
  },
  {
    "lat": "48.1954783",
    "lng": "14.2473771",
    "id": 1560669,
    "name": "BIPA",
    "description": "HAID CENTER",
    "address": "IKEA PLATZ 4",
    "city": "ANSFELDEN",
    "postal": "4053"
  },
  {
    "lat": "48.20499",
    "lng": "14.2514566",
    "id": 1560670,
    "name": "BIPA",
    "address": "HAUPTPLATZ 33",
    "city": "HAID",
    "postal": "4053"
  },
  {
    "lat": "48.2789455",
    "lng": "14.2494884",
    "id": 1560671,
    "name": "BIPA",
    "address": "STADTPLATZ 13A",
    "city": "LEONDING",
    "postal": "4060"
  },
  {
    "lat": "48.2673515",
    "lng": "14.2649448",
    "id": 1560672,
    "name": "BIPA",
    "address": "WELSER STRASSE 41",
    "city": "LEONDING",
    "postal": "4060"
  },
  {
    "lat": "48.2435078",
    "lng": "14.2367517",
    "id": 1560673,
    "name": "BIPA",
    "description": "PLUS CITY, EG",
    "address": "PLUSKAUFSTRASSE 7",
    "city": "PASCHING",
    "postal": "4061"
  },
  {
    "lat": "48.3085607",
    "lng": "14.0225802",
    "id": 1560674,
    "name": "BIPA",
    "address": "SCHMIEDSTRASSE 5",
    "city": "EFERDING",
    "postal": "4070"
  },
  {
    "lat": "48.3397309",
    "lng": "14.168641",
    "id": 1560675,
    "name": "BIPA",
    "description": "EKZ DONAUTREFF",
    "address": "HOSTAUER STRASSE 62-68",
    "city": "OTTENSHEIM",
    "postal": "4100"
  },
  {
    "lat": "48.571636",
    "lng": "13.9927817",
    "id": 1560676,
    "name": "BIPA",
    "address": "STADTPLATZ 12",
    "city": "ROHRBACH",
    "postal": "4150"
  },
  {
    "lat": "48.5226586",
    "lng": "14.2937879",
    "id": 1560677,
    "name": "BIPA",
    "address": "HAUPTPLATZ 5",
    "city": "BAD LEONFELDEN",
    "postal": "4190"
  },
  {
    "lat": "48.3526145",
    "lng": "14.4156848",
    "id": 1560678,
    "name": "BIPA",
    "address": "HAUPTSTRASSE 14",
    "city": "GALLNEUKIRCHEN",
    "postal": "4210"
  },
  {
    "lat": "48.2824632",
    "lng": "14.364185",
    "id": 1560679,
    "name": "BIPA",
    "description": "SHOPPING MEILE STEYREGG",
    "address": "LINZER STRASSE 16C",
    "city": "STEYREGG",
    "postal": "4221"
  },
  {
    "lat": "48.3550029",
    "lng": "14.5310779",
    "id": 1560680,
    "name": "BIPA",
    "address": "STADTPLATZ 18",
    "city": "PREGARTEN",
    "postal": "4230"
  },
  {
    "lat": "48.4966065",
    "lng": "14.5023492",
    "id": 1560681,
    "name": "BIPA",
    "address": "INDUSTRIESTRASSE 3",
    "city": "FREISTADT",
    "postal": "4240"
  },
  {
    "lat": "48.5107562",
    "lng": "14.5025627",
    "id": 1560682,
    "name": "BIPA",
    "address": "EISENGASSE 10",
    "city": "FREISTADT",
    "postal": "4240"
  },
  {
    "lat": "48.1690561",
    "lng": "14.5146513",
    "id": 1560683,
    "name": "BIPA",
    "address": "KRIEMHILDSTRASSE 20",
    "city": "ST. VALENTIN",
    "postal": "4300"
  },
  {
    "lat": "48.273556",
    "lng": "14.5767407",
    "id": 1560684,
    "name": "BIPA",
    "address": "AISTTALSTRASSE 34 A",
    "city": "SCHWERTBERG",
    "postal": "4311"
  },
  {
    "lat": "48.2387167",
    "lng": "14.6279256",
    "id": 1560685,
    "name": "BIPA",
    "description": "FMZ PERG",
    "address": "NAARNER STRASSE 77D",
    "city": "PERG",
    "postal": "4320"
  },
  {
    "lat": "48.0406112",
    "lng": "14.4198585",
    "id": 1560686,
    "name": "BIPA",
    "address": "ENGEGASSE 24",
    "city": "STEYR",
    "postal": "4400"
  },
  {
    "lat": "48.0668461",
    "lng": "14.4195483",
    "id": 1560687,
    "name": "BIPA",
    "address": "GLEINKER HAUPTSTRASSE 1D",
    "city": "STEYR",
    "postal": "4400"
  },
  {
    "lat": "48.0413995",
    "lng": "14.4242825",
    "id": 1560688,
    "name": "BIPA",
    "address": "PACHERGASSE 9",
    "city": "STEYR",
    "postal": "4400"
  },
  {
    "lat": "48.2097444",
    "lng": "14.4777163",
    "id": 1560689,
    "name": "BIPA",
    "address": "FORSTBERGSTRASSE 3-5",
    "city": "ENNS",
    "postal": "4470"
  },
  {
    "lat": "48.2175798",
    "lng": "14.4226838",
    "id": 1560690,
    "name": "BIPA",
    "description": "FMZ",
    "address": "GERANIENSTRASSE 6",
    "city": "ASTEN",
    "postal": "4481"
  },
  {
    "lat": "48.1431859",
    "lng": "14.2299032",
    "id": 1560691,
    "name": "BIPA",
    "address": "IMHOFSTRASSE 2",
    "city": "NEUHOFEN\/KREMS",
    "postal": "4501"
  },
  {
    "lat": "48.0293818",
    "lng": "14.2263307",
    "id": 1560692,
    "name": "BIPA",
    "description": "PESENDORFERSTR., KREUZUNG VORALPENBUNDESSTR.",
    "address": "GEWERBESTRASSE 3",
    "city": "ADLWANG",
    "postal": "4540"
  },
  {
    "lat": "48.0341408",
    "lng": "14.2106313",
    "id": 1560693,
    "name": "BIPA",
    "address": "HAUPTPLATZ 25",
    "city": "BAD HALL",
    "postal": "4540"
  },
  {
    "lat": "48.0528489",
    "lng": "14.1313101",
    "id": 1560694,
    "name": "BIPA",
    "address": "MARKTPLATZ 29",
    "city": "KREMSMÜNSTER",
    "postal": "4550"
  },
  {
    "lat": "47.9061764",
    "lng": "14.1212901",
    "id": 1560695,
    "name": "BIPA",
    "address": "SIMON REDTENBACHER P. 3",
    "city": "KIRCHDORF\/KREMS",
    "postal": "4560"
  },
  {
    "lat": "47.8759925",
    "lng": "14.1289503",
    "id": 1560696,
    "name": "BIPA",
    "description": "MICHELPARK",
    "address": "BADER MOSER STRASSE 30",
    "city": "MICHELDORF",
    "postal": "4563"
  },
  {
    "lat": "48.1540865",
    "lng": "14.0355742",
    "id": 1560697,
    "name": "BIPA",
    "address": "TRAUNUFER ARKADE 1",
    "city": "THALHEIM\/WELS",
    "postal": "4600"
  },
  {
    "lat": "48.1620027",
    "lng": "14.0077144",
    "id": 1560698,
    "name": "BIPA",
    "address": "VOGELWEIDEPLATZ 7-8",
    "city": "WELS",
    "postal": "4600"
  },
  {
    "lat": "48.1692344",
    "lng": "14.0268898",
    "id": 1560699,
    "name": "BIPA",
    "address": "FRANZ-KEIM-STRASSE 20",
    "city": "WELS",
    "postal": "4600"
  },
  {
    "lat": "48.1601076",
    "lng": "14.0240535",
    "id": 1560700,
    "name": "BIPA",
    "address": "KAISER-JOSEF-PLATZ 50",
    "city": "WELS",
    "postal": "4600"
  },
  {
    "lat": "48.1439332",
    "lng": "13.9703357",
    "id": 1560701,
    "name": "BIPA",
    "description": "FMZ",
    "address": "MALVENSTRASSE 5",
    "city": "WELS",
    "postal": "4600"
  },
  {
    "lat": "48.1943298",
    "lng": "14.1151731",
    "id": 1560702,
    "name": "BIPA",
    "address": "EICHENSTRASSE 15",
    "city": "MARCHTRENK",
    "postal": "4614"
  },
  {
    "lat": "48.0910782",
    "lng": "13.8728024",
    "id": 1560703,
    "name": "BIPA",
    "address": "MARKTPLATZ 10",
    "city": "LAMBACH",
    "postal": "4650"
  },
  {
    "lat": "47.9809593",
    "lng": "13.8233427",
    "id": 1560704,
    "name": "BIPA",
    "address": "GMUNDNERSTRASSE 6",
    "city": "LAAKIRCHEN",
    "postal": "4663"
  },
  {
    "lat": "48.0478553",
    "lng": "13.7813575",
    "id": 1560705,
    "name": "BIPA",
    "address": "VOR DER AU NR. 5",
    "city": "SCHWANENSTADT",
    "postal": "4690"
  },
  {
    "lat": "48.2310496",
    "lng": "13.9181627",
    "id": 1560706,
    "name": "BIPA",
    "address": "GRIESKIRCHNER STR. 9-13A",
    "city": "BAD SCHALLERBACH",
    "postal": "4701"
  },
  {
    "lat": "48.2339522",
    "lng": "13.8308892",
    "id": 1560707,
    "name": "BIPA",
    "address": "ROSSMARKT 15",
    "city": "GRIESKIRCHEN",
    "postal": "4710"
  },
  {
    "lat": "48.3356276",
    "lng": "13.7717955",
    "id": 1560708,
    "name": "BIPA",
    "description": "CITY CENTER",
    "address": "ERNST-DREEFS-STRASSE 2\/1",
    "city": "PEUERBACH",
    "postal": "4722"
  },
  {
    "lat": "48.3657604",
    "lng": "13.5679673",
    "id": 1560709,
    "name": "BIPA",
    "address": "WILHELM-REDL-STRASSE 2",
    "city": "ANDORF",
    "postal": "4770"
  },
  {
    "lat": "48.4559492",
    "lng": "13.4313232",
    "id": 1560710,
    "name": "BIPA",
    "address": "DENISGASSE 4",
    "city": "SCHÄRDING",
    "postal": "4780"
  },
  {
    "lat": "48.0101398",
    "lng": "13.719503",
    "id": 1560711,
    "name": "BIPA",
    "address": "MARKTSTRASSE 6-8",
    "city": "ATTNANG-PUCHHEIM",
    "postal": "4800"
  },
  {
    "lat": "47.8102423",
    "lng": "13.7753245",
    "id": 1560712,
    "name": "BIPA",
    "address": "ALTE SALINE 9",
    "city": "EBENSEE",
    "postal": "4802"
  },
  {
    "lat": "47.9339451",
    "lng": "13.7876272",
    "id": 1560713,
    "name": "BIPA",
    "description": "FMZ",
    "address": "AUBAUERSTRASSE 32-34",
    "city": "GMUNDEN",
    "postal": "4810"
  },
  {
    "lat": "47.9186261",
    "lng": "13.8002146",
    "id": 1560714,
    "name": "BIPA",
    "address": "RATHAUSPLATZ 6",
    "city": "GMUNDEN",
    "postal": "4810"
  },
  {
    "lat": "47.9262484",
    "lng": "13.7907929",
    "id": 1560715,
    "name": "BIPA",
    "description": "SEP - SALZKAMMERGUT EINKAUFSPARK, EG",
    "address": "DRUCKEREISTRASSE 22",
    "city": "GMUNDEN",
    "postal": "4810"
  },
  {
    "lat": "47.8935191",
    "lng": "13.7653749",
    "id": 1560716,
    "name": "BIPA",
    "address": "AM SCHLOSSWALD 1",
    "city": "ALTMÜNSTER",
    "postal": "4813"
  },
  {
    "lat": "47.6904553",
    "lng": "13.6234903",
    "id": 1560717,
    "name": "BIPA",
    "address": "SULZBACHSTRASSE 41",
    "city": "BAD ISCHL",
    "postal": "4820"
  },
  {
    "lat": "47.7110202",
    "lng": "13.6219415",
    "id": 1560718,
    "name": "BIPA",
    "address": "PFARRGASSE 9",
    "city": "BAD ISCHL",
    "postal": "4820"
  },
  {
    "lat": "47.6476775",
    "lng": "13.6153972",
    "id": 1560719,
    "name": "BIPA",
    "address": "LAIMERWEG 4",
    "city": "BAD GOISERN",
    "postal": "4822"
  },
  {
    "lat": "48.0083237",
    "lng": "13.6544169",
    "id": 1560720,
    "name": "BIPA",
    "address": "STADTPLATZ 19",
    "city": "VÖCKLABRUCK",
    "postal": "4840"
  },
  {
    "lat": "48.0048305",
    "lng": "13.6760745",
    "id": 1560721,
    "name": "BIPA",
    "address": "MAX PLANCK-STRASSE 9\/2",
    "city": "VÖCKLABRUCK",
    "postal": "4840"
  },
  {
    "lat": "48.0013848",
    "lng": "13.6017331",
    "id": 1560722,
    "name": "BIPA",
    "address": "SALZBURGER STRASSE 32",
    "city": "TIMELKAM",
    "postal": "4850"
  },
  {
    "lat": "47.9712377",
    "lng": "13.6078992",
    "id": 1560723,
    "name": "BIPA",
    "address": "AGERSTRASSE 7",
    "city": "LENZING",
    "postal": "4860"
  },
  {
    "lat": "47.9344376",
    "lng": "13.4886588",
    "id": 1560724,
    "name": "BIPA",
    "address": "ATTERGAUSTRASSE 47",
    "city": "ST. GEORGEN\/A.",
    "postal": "4880"
  },
  {
    "lat": "48.2096539",
    "lng": "13.4881457",
    "id": 1560725,
    "name": "BIPA",
    "address": "HAUPTPLATZ 38",
    "city": "RIED\/INNKREIS",
    "postal": "4910"
  },
  {
    "lat": "48.2203399",
    "lng": "13.4975553",
    "id": 1560726,
    "name": "BIPA",
    "description": "GEZ HANNESGRUB",
    "address": "HANNESGRUB NORD 3\/1",
    "city": "TUMELTSHAM",
    "postal": "4911"
  },
  {
    "lat": "48.2496303",
    "lng": "13.210459",
    "id": 1560727,
    "name": "BIPA",
    "address": "PIRATH 21",
    "city": "WENG\/INNKREIS",
    "postal": "4952"
  },
  {
    "lat": "47.8111317",
    "lng": "13.0057587",
    "id": 1560728,
    "name": "BIPA",
    "address": "KLESSHEIMALLEE 93",
    "city": "SALZBURG",
    "postal": "5020"
  },
  {
    "lat": "47.8081725",
    "lng": "13.0668386",
    "id": 1560729,
    "name": "BIPA",
    "address": "FÜRBERGSTRASSE 27",
    "city": "SALZBURG",
    "postal": "5020"
  },
  {
    "lat": "47.8085301",
    "lng": "13.0596664",
    "id": 1560730,
    "name": "BIPA",
    "address": "ROBINIGSTRASSE 3",
    "city": "SALZBURG",
    "postal": "5020"
  },
  {
    "lat": "47.773689",
    "lng": "13.0711362",
    "id": 1560731,
    "name": "BIPA",
    "address": "GINZKEYPLATZ 5",
    "city": "SALZBURG",
    "postal": "5020"
  },
  {
    "lat": "47.7886345",
    "lng": "13.0779799",
    "id": 1560732,
    "name": "BIPA",
    "address": "AIGNERSTRASSE 69",
    "city": "SALZBURG",
    "postal": "5020"
  },
  {
    "lat": "47.8296302",
    "lng": "13.0045873",
    "id": 1560733,
    "name": "BIPA",
    "address": "MÜNCHNER BUNDESSTR. 118",
    "city": "SALZBURG",
    "postal": "5020"
  },
  {
    "lat": "47.8005788",
    "lng": "13.0425995",
    "id": 1560734,
    "name": "BIPA",
    "address": "GRIESGASSE 17",
    "city": "SALZBURG",
    "postal": "5020"
  },
  {
    "lat": "47.7963785",
    "lng": "13.0233748",
    "id": 1560735,
    "name": "BIPA",
    "address": "MAXGLANER HAUPTSTRASSE 16 A",
    "city": "SALZBURG",
    "postal": "5020"
  },
  {
    "lat": "47.8102994",
    "lng": "13.0422788",
    "id": 1560736,
    "name": "BIPA",
    "description": "KIESELPASSAGE, EG",
    "address": "RAINERSTRASSE 21-23",
    "city": "SALZBURG",
    "postal": "5020"
  },
  {
    "lat": "47.7486048",
    "lng": "13.0847721",
    "id": 1560737,
    "name": "BIPA",
    "address": "MARKTSTRASSE 10",
    "city": "ELSBETHEN",
    "postal": "5061"
  },
  {
    "lat": "47.9356895",
    "lng": "12.9460573",
    "id": 1560738,
    "name": "BIPA",
    "address": "RÖMERWEG 1",
    "city": "OBERNDORF\/S.",
    "postal": "5110"
  },
  {
    "lat": "47.9819349",
    "lng": "12.9225553",
    "id": 1560739,
    "name": "BIPA",
    "address": "ANTON SEYWALDGASSE 1",
    "city": "BÜRMOOS",
    "postal": "5111"
  },
  {
    "lat": "47.9330267",
    "lng": "13.0801452",
    "id": 1560740,
    "name": "BIPA",
    "address": "JAKOBISTRASSE 17",
    "city": "OBERTRUM AM SEE",
    "postal": "5162"
  },
  {
    "lat": "47.8944465",
    "lng": "13.1247709",
    "id": 1560741,
    "name": "BIPA",
    "address": "HAUPTSTRASSE 31",
    "city": "SEEKIRCHEN",
    "postal": "5201"
  },
  {
    "lat": "47.9486415",
    "lng": "13.2264784",
    "id": 1560742,
    "name": "BIPA",
    "address": "WIENER STRASSE 2",
    "city": "NEUMARKT\/W.",
    "postal": "5202"
  },
  {
    "lat": "47.9725276",
    "lng": "13.2497902",
    "id": 1560743,
    "name": "BIPA",
    "address": "SALZBURGER STRASSE 52A",
    "city": "STRASSWALCHEN",
    "postal": "5204"
  },
  {
    "lat": "48.1040351",
    "lng": "13.1503119",
    "id": 1560744,
    "name": "BIPA",
    "address": "STADTPLATZ 25",
    "city": "MATTIGHOFEN",
    "postal": "5230"
  },
  {
    "lat": "48.2590493",
    "lng": "13.0343641",
    "id": 1560745,
    "name": "BIPA",
    "address": "STADTPLATZ 7",
    "city": "BRAUNAU AM INN",
    "postal": "5280"
  },
  {
    "lat": "47.8645128",
    "lng": "13.1285663",
    "id": 1560746,
    "name": "BIPA",
    "description": "ZENTRUM RUNDUM",
    "address": "KIRCHENGASSE 37",
    "city": "EUGENDORF",
    "postal": "5301"
  },
  {
    "lat": "47.8905422",
    "lng": "13.18336",
    "id": 1560747,
    "name": "BIPA",
    "description": "FMZ MEILENSTEIN",
    "address": "LANDESSTRASSE 23",
    "city": "HENNDORF\/W.",
    "postal": "5302"
  },
  {
    "lat": "47.8157928",
    "lng": "13.2304086",
    "id": 1560748,
    "name": "BIPA",
    "address": "THANNSTRASSE 2",
    "city": "HOF BEI SALZBURG",
    "postal": "5322"
  },
  {
    "lat": "47.6838892",
    "lng": "13.0973279",
    "id": 1560749,
    "name": "BIPA",
    "address": "BAHNHOFSTRASSE 5",
    "city": "HALLEIN",
    "postal": "5400"
  },
  {
    "lat": "47.6860353",
    "lng": "13.1071624",
    "id": 1560750,
    "name": "BIPA",
    "address": "EUROPASTRASSE 26",
    "city": "HALLEIN",
    "postal": "5400"
  },
  {
    "lat": "47.6353735",
    "lng": "13.1388612",
    "id": 1560751,
    "name": "BIPA",
    "address": "MOOS 80A",
    "city": "KUCHL",
    "postal": "5431"
  },
  {
    "lat": "47.0712025",
    "lng": "15.4382784",
    "id": 1560752,
    "name": "BIPA",
    "address": "HAUPTPLATZ 5",
    "city": "GOLLING",
    "postal": "5440"
  },
  {
    "lat": "47.5675852",
    "lng": "13.3383674",
    "id": 1560753,
    "name": "BIPA",
    "address": "MARKT 294",
    "city": "ABTENAU",
    "postal": "5441"
  },
  {
    "lat": "47.4091394",
    "lng": "13.2163176",
    "id": 1560754,
    "name": "BIPA",
    "address": "GASTEINERSTRASSE 50-52",
    "city": "BISCHOFSHOFEN",
    "postal": "5500"
  },
  {
    "lat": "47.3793497",
    "lng": "13.4209109",
    "id": 1560755,
    "name": "BIPA",
    "address": "OBERE MARKTSTRASSE 22",
    "city": "ALTENMARKT\/P.",
    "postal": "5541"
  },
  {
    "lat": "47.3789444",
    "lng": "13.472648",
    "id": 1560756,
    "name": "BIPA",
    "address": "TAUERNSTRASSE 30A",
    "city": "RADSTADT",
    "postal": "5550"
  },
  {
    "lat": "47.1265364",
    "lng": "13.8100338",
    "id": 1560757,
    "name": "BIPA",
    "address": "KIRCHENGASSE 5",
    "city": "TAMSWEG",
    "postal": "5580"
  },
  {
    "lat": "47.3492495",
    "lng": "13.2031118",
    "id": 1560758,
    "name": "BIPA",
    "address": "HAUPTSTRASSE 31",
    "city": "ST. JOHANN\/P.",
    "postal": "5600"
  },
  {
    "lat": "47.3497726",
    "lng": "13.1946433",
    "id": 1560759,
    "name": "BIPA",
    "description": "BZW. PINZGAUER STRASSE 12",
    "address": "PINZGAUER BUNDESSTR. 12",
    "city": "ST. JOHANN\/P.",
    "postal": "5600"
  },
  {
    "lat": "47.1695509",
    "lng": "13.1084707",
    "id": 1560760,
    "name": "BIPA",
    "address": "KURPROMENADE 13",
    "city": "BAD HOFGASTEIN",
    "postal": "5630"
  },
  {
    "lat": "47.3237212",
    "lng": "12.7961665",
    "id": 1560761,
    "name": "BIPA",
    "address": "POSTPLATZ 4",
    "city": "ZELL AM SEE",
    "postal": "5700"
  },
  {
    "lat": "47.2970812",
    "lng": "12.7888686",
    "id": 1560762,
    "name": "BIPA",
    "address": "GLETSCHERMOOSSTRASSE 36",
    "city": "ZELL AM SEE",
    "postal": "5700"
  },
  {
    "lat": "47.2812931",
    "lng": "12.4822781",
    "id": 1560763,
    "name": "BIPA",
    "address": "STADTPLATZ 16",
    "city": "MITTERSILL",
    "postal": "5730"
  },
  {
    "lat": "47.4248862",
    "lng": "12.8492853",
    "id": 1560764,
    "name": "BIPA",
    "address": "LEOPOLD RADAUER STR. 1C",
    "city": "SAALFELDEN",
    "postal": "5760"
  },
  {
    "lat": "47.4256783",
    "lng": "12.8405073",
    "id": 1560765,
    "name": "BIPA",
    "description": "BEI MERKUR",
    "address": "FÄRBERGASSE 3",
    "city": "SAALFELDEN",
    "postal": "5760"
  },
  {
    "lat": "47.2670425",
    "lng": "11.3944299",
    "id": 1560766,
    "name": "BIPA",
    "description": "HÖRTNAGL PASSAGE, EG",
    "address": "BURGGRABEN 4",
    "city": "INNSBRUCK",
    "postal": "6020"
  },
  {
    "lat": "47.2586587",
    "lng": "11.4055493",
    "id": 1560767,
    "name": "BIPA",
    "address": "JOSEF THOMAN STRASSE 8",
    "city": "INNSBRUCK",
    "postal": "6020"
  },
  {
    "lat": "47.2652239",
    "lng": "11.3932944",
    "id": 1560768,
    "name": "BIPA",
    "address": "ANICHSTRASSE 4",
    "city": "INNSBRUCK",
    "postal": "6020"
  },
  {
    "lat": "47.2640207",
    "lng": "11.4005283",
    "id": 1560769,
    "name": "BIPA",
    "description": "HAUPTBAHNHOF",
    "address": "SÜDTIROLER PLATZ 7",
    "city": "INNSBRUCK",
    "postal": "6020"
  },
  {
    "lat": "47.2682285",
    "lng": "11.4275959",
    "id": 1560770,
    "name": "BIPA",
    "description": "LANGER WEG",
    "address": "VALIERGASSE 6",
    "city": "INNSBRUCK",
    "postal": "6020"
  },
  {
    "lat": "47.2652197",
    "lng": "11.3980697",
    "id": 1560771,
    "name": "BIPA",
    "address": "BOZNERPLATZ 3",
    "city": "INNSBRUCK",
    "postal": "6020"
  },
  {
    "lat": "47.2606702",
    "lng": "11.3918787",
    "id": 1560772,
    "name": "BIPA",
    "address": "ANDREAS HOFER STRASSE 15",
    "city": "INNSBRUCK",
    "postal": "6020"
  },
  {
    "lat": "47.28056",
    "lng": "11.5056349",
    "id": 1560773,
    "name": "BIPA",
    "address": "SCHMIEDTORGASSE 3",
    "city": "HALL IN TIROL",
    "postal": "6060"
  },
  {
    "lat": "47.2760948",
    "lng": "11.4752812",
    "id": 1560774,
    "name": "BIPA",
    "address": "INNSBRUCKER STRASSE 83",
    "city": "HALL IN TIROL",
    "postal": "6060"
  },
  {
    "lat": "47.2723591",
    "lng": "11.4483547",
    "id": 1560775,
    "name": "BIPA",
    "address": "SIEMENSSTRASSE 43",
    "city": "RUM",
    "postal": "6064"
  },
  {
    "lat": "47.2361049",
    "lng": "11.3114017",
    "id": 1560776,
    "name": "BIPA",
    "address": "KIRCHGASSE 14",
    "city": "GÖTZENS",
    "postal": "6091"
  },
  {
    "lat": "47.3287867",
    "lng": "11.1887561",
    "id": 1560777,
    "name": "BIPA",
    "description": "FUSSGÄNGERZONE",
    "address": "BAHNHOFSTRASSE 389",
    "city": "SEEFELD\/TIROL",
    "postal": "6100"
  },
  {
    "lat": "47.2920942",
    "lng": "11.5929127",
    "id": 1560778,
    "name": "BIPA",
    "address": "KIRCHPLATZ 4A",
    "city": "WATTENS",
    "postal": "6112"
  },
  {
    "lat": "47.3555978",
    "lng": "11.711404",
    "id": 1560779,
    "name": "BIPA",
    "address": "HERMINE-BERGHOFER-STR. 6",
    "city": "SCHWAZ",
    "postal": "6130"
  },
  {
    "lat": "47.3491752",
    "lng": "11.6964253",
    "id": 1560780,
    "name": "BIPA",
    "address": "AN DER LEITEN 16, TOP W05",
    "city": "VOMP",
    "postal": "6134"
  },
  {
    "lat": "47.1836743",
    "lng": "11.398504",
    "id": 1560781,
    "name": "BIPA",
    "description": "KAUFLAND",
    "address": "DORFSTRASSE 28",
    "city": "SCHÖNBERG\/S.",
    "postal": "6141"
  },
  {
    "lat": "47.1508762",
    "lng": "11.353596",
    "id": 1560782,
    "name": "BIPA",
    "address": "MÜHLWIESE 6",
    "city": "FULPMES",
    "postal": "6166"
  },
  {
    "lat": "47.2721298",
    "lng": "11.2423261",
    "id": 1560783,
    "name": "BIPA",
    "address": "KIRCHSTRASSE 15",
    "city": "ZIRL",
    "postal": "6170"
  },
  {
    "lat": "47.2561895",
    "lng": "11.3258764",
    "id": 1560784,
    "name": "BIPA",
    "description": "EKZ CYTA, EG",
    "address": "CYTASTRASSE 1 TOP 215",
    "city": "VÖLS",
    "postal": "6176"
  },
  {
    "lat": "47.3904542",
    "lng": "11.7720701",
    "id": 1560785,
    "name": "BIPA",
    "address": "AUF DER HUBEN 2",
    "city": "JENBACH",
    "postal": "6200"
  },
  {
    "lat": "47.3879022",
    "lng": "11.7820785",
    "id": 1560786,
    "name": "BIPA",
    "address": "AUSTRASSE 28",
    "city": "JENBACH",
    "postal": "6200"
  },
  {
    "lat": "47.4047551",
    "lng": "11.8213721",
    "id": 1560787,
    "name": "BIPA",
    "address": "GEWERBEGEBIET NORD 27F",
    "city": "SCHLITTERS",
    "postal": "6262"
  },
  {
    "lat": "47.2101543",
    "lng": "11.8732339",
    "id": 1560788,
    "name": "BIPA",
    "address": "TALSTRASSE 27",
    "city": "RAMSAU\/Z.",
    "postal": "6283"
  },
  {
    "lat": "47.1672007",
    "lng": "11.8633675",
    "id": 1560789,
    "name": "BIPA",
    "address": "HAUPTSTRASSE 416",
    "city": "MAYRHOFEN",
    "postal": "6290"
  },
  {
    "lat": "47.4892281",
    "lng": "12.073715",
    "id": 1560790,
    "name": "BIPA",
    "address": "SALZBURGER STRASSE 53A",
    "city": "WÖRGL",
    "postal": "6300"
  },
  {
    "lat": "47.4893388",
    "lng": "12.0619055",
    "id": 1560791,
    "name": "BIPA",
    "description": "EKZ CITY-CENTER",
    "address": "BAHNHOFSTRASSE 42",
    "city": "WÖRGL",
    "postal": "6300"
  },
  {
    "lat": "47.5027943",
    "lng": "12.192895",
    "id": 1560792,
    "name": "BIPA",
    "address": "DORF 134",
    "city": "SÖLL",
    "postal": "6306"
  },
  {
    "lat": "47.5763488",
    "lng": "12.1584291",
    "id": 1560793,
    "name": "BIPA",
    "description": "INNPARK",
    "address": "SALURNERSTRASSE 38",
    "city": "KUFSTEIN",
    "postal": "6330"
  },
  {
    "lat": "47.5847686",
    "lng": "12.1720215",
    "id": 1560794,
    "name": "BIPA",
    "address": "KAISERBERGSTRASSE 4",
    "city": "KUFSTEIN",
    "postal": "6330"
  },
  {
    "lat": "47.6308292",
    "lng": "12.2141676",
    "id": 1560795,
    "name": "BIPA",
    "address": "RAIFFEISENPLATZ 3",
    "city": "EBBS",
    "postal": "6341"
  },
  {
    "lat": "47.5133887",
    "lng": "12.3035671",
    "id": 1560796,
    "name": "BIPA",
    "address": "DORF 34",
    "city": "ELLMAU",
    "postal": "6352"
  },
  {
    "lat": "47.4483516",
    "lng": "12.1582804",
    "id": 1560797,
    "name": "BIPA",
    "address": "BRIXENTALER STRASSE 27",
    "city": "HOPFGARTEN",
    "postal": "6361"
  },
  {
    "lat": "47.4474572",
    "lng": "12.3140455",
    "id": 1560798,
    "name": "BIPA",
    "address": "DORFPLATZ 5",
    "city": "KIRCHBERG",
    "postal": "6365"
  },
  {
    "lat": "47.4393756",
    "lng": "12.3998463",
    "id": 1560799,
    "name": "BIPA",
    "address": "JOCHBERGER STRASSE 58",
    "city": "KITZBÜHEL",
    "postal": "6370"
  },
  {
    "lat": "47.5222766",
    "lng": "12.4260312",
    "id": 1560800,
    "name": "BIPA",
    "address": "KAISERSTRASSE 13",
    "city": "ST. JOHANN\/T.",
    "postal": "6380"
  },
  {
    "lat": "47.4865806",
    "lng": "12.5317369",
    "id": 1560801,
    "name": "BIPA",
    "address": "ROSENEGG 63",
    "city": "FIEBERBRUNN",
    "postal": "6391"
  },
  {
    "lat": "47.3048145",
    "lng": "11.0702235",
    "id": 1560802,
    "name": "BIPA",
    "description": "INNTALCENTER",
    "address": "WEISSENBACHGASSE 9",
    "city": "TELFS",
    "postal": "6410"
  },
  {
    "lat": "47.3052402",
    "lng": "11.0866318",
    "id": 1560803,
    "name": "BIPA",
    "description": "TELFSPARK",
    "address": "MICHAEL-SEEBER-STRASSE 2",
    "city": "TELFS",
    "postal": "6410"
  },
  {
    "lat": "47.0672181",
    "lng": "10.9680525",
    "id": 1560804,
    "name": "BIPA",
    "address": "OBERLÄNGENFELD 114",
    "city": "LÄNGENFELD",
    "postal": "6444"
  },
  {
    "lat": "47.2179125",
    "lng": "10.7348285",
    "id": 1560805,
    "name": "BIPA",
    "address": "INDUSTRIEZONE 32",
    "city": "IMST",
    "postal": "6460"
  },
  {
    "lat": "47.2317378",
    "lng": "10.7431983",
    "id": 1560806,
    "name": "BIPA",
    "address": "LANGGASSE 25",
    "city": "IMST",
    "postal": "6460"
  },
  {
    "lat": "47.1408379",
    "lng": "10.5502863",
    "id": 1560807,
    "name": "BIPA",
    "address": "PROF.-ALOIS-FLIR-STR. 23",
    "city": "LANDECK",
    "postal": "6500"
  },
  {
    "lat": "47.1395122",
    "lng": "10.5659853",
    "id": 1560808,
    "name": "BIPA",
    "address": "MALSERSTRASSE 39",
    "city": "LANDECK",
    "postal": "6500"
  },
  {
    "lat": "47.0140029",
    "lng": "10.2946052",
    "id": 1560809,
    "name": "BIPA",
    "address": "DORFSTRASSE 18",
    "city": "ISCHGL",
    "postal": "6561"
  },
  {
    "lat": "47.1279272",
    "lng": "10.2644707",
    "id": 1560810,
    "name": "BIPA",
    "address": "DORFSTRASSE 3-7",
    "city": "ST. ANTON AM A.",
    "postal": "6580"
  },
  {
    "lat": "47.4883584",
    "lng": "10.7117476",
    "id": 1560811,
    "name": "BIPA",
    "description": "FMZ LECHPARK",
    "address": "LINDENSTRASSE 35",
    "city": "REUTTE",
    "postal": "6600"
  },
  {
    "lat": "47.483411",
    "lng": "10.7218599",
    "id": 1560812,
    "name": "BIPA",
    "description": "FMZ",
    "address": "INNSBRUCKER STRASSE 2",
    "city": "REUTTE",
    "postal": "6600"
  },
  {
    "lat": "47.1539975",
    "lng": "9.8164711",
    "id": 1560813,
    "name": "BIPA",
    "description": "BAHNHOFSPLATZ",
    "address": "BAHNHOFPLATZ 1A",
    "city": "BLUDENZ",
    "postal": "6700"
  },
  {
    "lat": "47.1970613",
    "lng": "9.7400969",
    "id": 1560814,
    "name": "BIPA",
    "description": "WALGAU PARK",
    "address": "HAUPTSTRASSE 7",
    "city": "BLUDESCH",
    "postal": "6719"
  },
  {
    "lat": "47.0802228",
    "lng": "9.9184939",
    "id": 1560815,
    "name": "BIPA",
    "description": "SILVRETTA CENTER",
    "address": "KIRCHPLATZ 17",
    "city": "SCHRUNS",
    "postal": "6780"
  },
  {
    "lat": "47.2375505",
    "lng": "9.5971727",
    "id": 1560816,
    "name": "BIPA",
    "address": "SCHMIEDGASSE 14",
    "city": "FELDKIRCH",
    "postal": "6800"
  },
  {
    "lat": "47.2707422",
    "lng": "9.6418845",
    "id": 1560817,
    "name": "BIPA",
    "description": "VINOMNACENTER",
    "address": "BAHNHOFSTRASSE 9",
    "city": "RANKWEIL",
    "postal": "6830"
  },
  {
    "lat": "47.2722469",
    "lng": "9.616673",
    "id": 1560818,
    "name": "BIPA",
    "description": "PASSAGE 22",
    "address": "BUNDESSTRASSE 22",
    "city": "RANKWEIL",
    "postal": "6830"
  },
  {
    "lat": "47.3327263",
    "lng": "9.6434805",
    "id": 1560819,
    "name": "BIPA",
    "address": "JUNKER JONAS PLATZ 3",
    "city": "GÖTZIS",
    "postal": "6840"
  },
  {
    "lat": "47.3556906",
    "lng": "9.6624336",
    "id": 1560820,
    "name": "BIPA",
    "address": "KOPFSTRASSE 22A",
    "city": "ALTACH",
    "postal": "6844"
  },
  {
    "lat": "47.3627396",
    "lng": "9.6852833",
    "id": 1560821,
    "name": "BIPA",
    "address": "BAHNHOFSTRASSE 10",
    "city": "HOHENEMS",
    "postal": "6845"
  },
  {
    "lat": "47.4124857",
    "lng": "9.7411746",
    "id": 1560822,
    "name": "BIPA",
    "description": "STADTMARKT",
    "address": "SCHULGASSE 11",
    "city": "DORNBIRN",
    "postal": "6850"
  },
  {
    "lat": "47.4166511",
    "lng": "9.750315",
    "id": 1560823,
    "name": "BIPA",
    "address": "KEHLERSTRASSE 20",
    "city": "DORNBIRN",
    "postal": "6850"
  },
  {
    "lat": "47.3927652",
    "lng": "9.72921",
    "id": 1560824,
    "name": "BIPA",
    "address": "WALLENMAHD 17",
    "city": "DORNBIRN",
    "postal": "6850"
  },
  {
    "lat": "47.4386462",
    "lng": "9.7583432",
    "id": 1560825,
    "name": "BIPA",
    "address": "GUTENBERGSTRASSE 2",
    "city": "SCHWARZACH",
    "postal": "6858"
  },
  {
    "lat": "47.383339",
    "lng": "9.9009049",
    "id": 1560826,
    "name": "BIPA",
    "address": "PLATZ 362",
    "city": "BEZAU",
    "postal": "6870"
  },
  {
    "lat": "47.4274176",
    "lng": "9.6584101",
    "id": 1560827,
    "name": "BIPA",
    "address": "MARIA THERESIEN STRASSE 6",
    "city": "LUSTENAU",
    "postal": "6890"
  },
  {
    "lat": "47.5034312",
    "lng": "9.7453944",
    "id": 1560828,
    "name": "BIPA",
    "address": "KASPAR HAGEN STRASSE 2A",
    "city": "BREGENZ",
    "postal": "6900"
  },
  {
    "lat": "47.5360163",
    "lng": "9.7525063",
    "id": 1560829,
    "name": "BIPA",
    "address": "HOFRIEDENSTRASSE 36",
    "city": "LOCHAU",
    "postal": "6911"
  },
  {
    "lat": "47.4687154",
    "lng": "9.7290673",
    "id": 1560830,
    "name": "BIPA",
    "address": "BUNDESSTRASSE 103A",
    "city": "LAUTERACH",
    "postal": "6923"
  },
  {
    "lat": "47.4901676",
    "lng": "9.7061065",
    "id": 1560831,
    "name": "BIPA",
    "address": "RHEINSTRASSE 5",
    "city": "HARD",
    "postal": "6971"
  },
  {
    "lat": "47.8348907",
    "lng": "16.5270855",
    "id": 1560832,
    "name": "BIPA",
    "description": "EZE - EINKAUFSZENTRUM EISENSTADT",
    "address": "RUSTER STRASSE 82-104",
    "city": "EISENSTADT",
    "postal": "7000"
  },
  {
    "lat": "47.8468882",
    "lng": "16.5251607",
    "id": 1560833,
    "name": "BIPA",
    "address": "HAUPTSTRASSE 41",
    "city": "EISENSTADT",
    "postal": "7000"
  },
  {
    "lat": "47.8390994",
    "lng": "16.5273048",
    "id": 1560834,
    "name": "BIPA",
    "address": "RUSTER STRASSE 55",
    "city": "EISENSTADT",
    "postal": "7000"
  },
  {
    "lat": "47.9471719",
    "lng": "16.8452507",
    "id": 1560835,
    "name": "BIPA",
    "address": "UNTERE HAUPTSTRASSE 28",
    "city": "NEUSIEDL AM SEE",
    "postal": "7100"
  },
  {
    "lat": "47.9757726",
    "lng": "16.8550343",
    "id": 1560836,
    "name": "BIPA",
    "description": "TOP2, A4 ABFAHRT OUTLETCENTER",
    "address": "RICHARD ERLINGER-PLATZ 1",
    "city": "PARNDORF",
    "postal": "7111"
  },
  {
    "lat": "47.8421146",
    "lng": "16.9283109",
    "id": 1560837,
    "name": "BIPA",
    "address": "MÖNCHHOFERSTRASSE 5",
    "city": "FRAUENKIRCHEN",
    "postal": "7132"
  },
  {
    "lat": "47.8008673",
    "lng": "16.2754005",
    "id": 1560838,
    "name": "BIPA",
    "address": "HAUPTSTRASSE 169",
    "city": "NEUDÖRFL",
    "postal": "7201"
  },
  {
    "lat": "47.7370597",
    "lng": "16.398304",
    "id": 1560839,
    "name": "BIPA",
    "address": "HAUPTPLATZ 13",
    "city": "MATTERSBURG",
    "postal": "7210"
  },
  {
    "lat": "47.7480545",
    "lng": "16.4202958",
    "id": 1560840,
    "name": "BIPA",
    "description": "EKZ ARENA",
    "address": "ARENAPLATZ 4",
    "city": "MATTERSBURG",
    "postal": "7210"
  },
  {
    "lat": "47.4979822",
    "lng": "16.5076581",
    "id": 1560841,
    "name": "BIPA",
    "address": "HAUPTSTRASSE 65",
    "city": "OBERPULLENDORF",
    "postal": "7350"
  },
  {
    "lat": "47.2841684",
    "lng": "16.1857046",
    "id": 1560842,
    "name": "BIPA",
    "address": "GRAZER STRASSE 136",
    "city": "OBERWART",
    "postal": "7400"
  },
  {
    "lat": "47.2892579",
    "lng": "16.2072427",
    "id": 1560843,
    "name": "BIPA",
    "description": "EKO",
    "address": "LEHARGASSE 6-8",
    "city": "OBERWART",
    "postal": "7400"
  },
  {
    "lat": "47.2742206",
    "lng": "16.2352409",
    "id": 1560844,
    "name": "BIPA",
    "address": "STEINAMANGERER STR. 189",
    "city": "OBERWART",
    "postal": "7400"
  },
  {
    "lat": "47.3685849",
    "lng": "16.1234127",
    "id": 1560845,
    "name": "BIPA",
    "address": "HAUPTSTRASSE 29",
    "city": "PINKAFELD",
    "postal": "7423"
  },
  {
    "lat": "47.2425591",
    "lng": "16.3105605",
    "id": 1560846,
    "name": "BIPA",
    "address": "HAUPTSTRASSE 99",
    "city": "GROSSPETERSDORF",
    "postal": "7503"
  },
  {
    "lat": "47.0592891",
    "lng": "16.3274096",
    "id": 1560847,
    "name": "BIPA",
    "address": "FALUDISTRASSE 14",
    "city": "GÜSSING",
    "postal": "7540"
  },
  {
    "lat": "47.1645363",
    "lng": "16.1631421",
    "id": 1560848,
    "name": "BIPA",
    "address": "WIENER STRASSE 27",
    "city": "STEGERSBACH",
    "postal": "7551"
  },
  {
    "lat": "47.0624592",
    "lng": "15.466824",
    "id": 1560849,
    "name": "BIPA",
    "address": "PLÜDDEMANNGASSE 77",
    "city": "GRAZ",
    "postal": "8010"
  },
  {
    "lat": "47.0675055",
    "lng": "15.4415134",
    "id": 1560850,
    "name": "BIPA",
    "address": "JAKOMINIPLATZ 25",
    "city": "GRAZ",
    "postal": "8010"
  },
  {
    "lat": "47.0716883",
    "lng": "15.4371529",
    "id": 1560851,
    "name": "BIPA",
    "address": "SACKSTRASSE 3",
    "city": "GRAZ",
    "postal": "8010"
  },
  {
    "lat": "47.0779876",
    "lng": "15.4445307",
    "id": 1560852,
    "name": "BIPA",
    "address": "HEINRICHSTRASSE 6",
    "city": "GRAZ",
    "postal": "8010"
  },
  {
    "lat": "47.0678017",
    "lng": "15.4437424",
    "id": 1560853,
    "name": "BIPA",
    "description": "GLEISDORFERGASSE",
    "address": "JAKOMINIPLATZ 11",
    "city": "GRAZ",
    "postal": "8010"
  },
  {
    "lat": "47.0997195",
    "lng": "15.4163467",
    "id": 1560854,
    "name": "BIPA",
    "address": "WEINZÖTTLSTRASSE 3B",
    "city": "GRAZ",
    "postal": "8010"
  },
  {
    "lat": "47.0668904",
    "lng": "15.4442834",
    "id": 1560855,
    "name": "BIPA",
    "address": "REITSCHULGASSE 8",
    "city": "GRAZ",
    "postal": "8010"
  },
  {
    "lat": "47.0795215",
    "lng": "15.4670482",
    "id": 1560856,
    "name": "BIPA",
    "description": "LKH",
    "address": "STIFTINGTALSTRASSE 7",
    "city": "GRAZ",
    "postal": "8010"
  },
  {
    "lat": "47.0786196",
    "lng": "15.4739127",
    "id": 1560857,
    "name": "BIPA",
    "address": "RAGNITZSTRASSE 16",
    "city": "GRAZ",
    "postal": "8010"
  },
  {
    "lat": "47.0519248",
    "lng": "15.4258112",
    "id": 1560858,
    "name": "BIPA",
    "address": "KAPELLENSTRASSE 4",
    "city": "GRAZ",
    "postal": "8020"
  },
  {
    "lat": "47.0727907",
    "lng": "15.4170933",
    "id": 1560859,
    "name": "BIPA",
    "description": "HAUPTBAHNHOF",
    "address": "EUROPAPLATZ 4, TOP 14-15",
    "city": "GRAZ",
    "postal": "8020"
  },
  {
    "lat": "47.0757356",
    "lng": "15.4304324",
    "id": 1560860,
    "name": "BIPA",
    "address": "LENDPLATZ 36",
    "city": "GRAZ",
    "postal": "8020"
  },
  {
    "lat": "47.0712138",
    "lng": "15.428472",
    "id": 1560861,
    "name": "BIPA",
    "description": "STYRIA CENTER",
    "address": "ANNENSTRASSE 22",
    "city": "GRAZ",
    "postal": "8020"
  },
  {
    "lat": "47.0700503",
    "lng": "15.4037814",
    "id": 1560862,
    "name": "BIPA",
    "address": "GASWERKSTRASSE 1A",
    "city": "GRAZ",
    "postal": "8020"
  },
  {
    "lat": "47.035447",
    "lng": "15.4635298",
    "id": 1560863,
    "name": "BIPA",
    "address": "LIEBENAUER HAUPTSTR. 139",
    "city": "GRAZ",
    "postal": "8041"
  },
  {
    "lat": "47.0508947",
    "lng": "15.4782965",
    "id": 1560864,
    "name": "BIPA",
    "address": "HUBERTUSSTRASSE 2",
    "city": "GRAZ",
    "postal": "8042"
  },
  {
    "lat": "47.1020972",
    "lng": "15.4808828",
    "id": 1560865,
    "name": "BIPA",
    "address": "MARIATROSTERSTRASSE 239",
    "city": "GRAZ",
    "postal": "8044"
  },
  {
    "lat": "47.1041226",
    "lng": "15.4215451",
    "id": 1560866,
    "name": "BIPA",
    "address": "ANDRITZER REICHSSTR. 44",
    "city": "GRAZ",
    "postal": "8045"
  },
  {
    "lat": "47.1048651",
    "lng": "15.3982931",
    "id": 1560867,
    "name": "BIPA",
    "description": "SHOPPING NORD",
    "address": "WIENER STRASSE 351",
    "city": "GRAZ",
    "postal": "8051"
  },
  {
    "lat": "47.0250635",
    "lng": "15.4001952",
    "id": 1560868,
    "name": "BIPA",
    "address": "KÄRNTNER STRASSE 392",
    "city": "GRAZ",
    "postal": "8054"
  },
  {
    "lat": "47.0203705",
    "lng": "15.4374923",
    "id": 1560869,
    "name": "BIPA",
    "address": "TRIESTER STRASSE 450",
    "city": "GRAZ",
    "postal": "8055"
  },
  {
    "lat": "47.0167968",
    "lng": "15.4113648",
    "id": 1560870,
    "name": "BIPA",
    "description": "SCS - SHOPPING CITY SEIERSBERG, EG",
    "address": "SEIERSBERG 3",
    "city": "SEIERSBERG-PIRKA",
    "postal": "8055"
  },
  {
    "lat": "47.0282096",
    "lng": "15.4343424",
    "id": 1560871,
    "name": "BIPA",
    "description": "ZENTRUM PUNTIGAM",
    "address": "TRIESTER STRASSE 371",
    "city": "GRAZ",
    "postal": "8055"
  },
  {
    "lat": "47.137377",
    "lng": "15.3298549",
    "id": 1560872,
    "name": "BIPA",
    "address": "BRUCKERSTRASSE 23",
    "city": "GRATKORN",
    "postal": "8101"
  },
  {
    "lat": "47.2025297",
    "lng": "15.3448678",
    "id": 1560873,
    "name": "BIPA",
    "address": "GRAZER STRASSE 28",
    "city": "PEGGAU",
    "postal": "8120"
  },
  {
    "lat": "47.2718846",
    "lng": "15.3277926",
    "id": 1560874,
    "name": "BIPA",
    "address": "BRUCKERSTRASSE 1A",
    "city": "FROHNLEITEN",
    "postal": "8130"
  },
  {
    "lat": "47.2176846",
    "lng": "15.6224727",
    "id": 1560875,
    "name": "BIPA",
    "address": "HAUPTPLATZ 12",
    "city": "WEIZ",
    "postal": "8160"
  },
  {
    "lat": "47.2168258",
    "lng": "15.6272324",
    "id": 1560876,
    "name": "BIPA",
    "address": "BIRKFELDER STRASSE 6",
    "city": "WEIZ",
    "postal": "8160"
  },
  {
    "lat": "47.3472943",
    "lng": "15.6922445",
    "id": 1560877,
    "name": "BIPA",
    "address": "GASENER STRASSE 1",
    "city": "BIRKFELD",
    "postal": "8190"
  },